datetime,city,state,country,shape,duration (seconds),duration (hours/min),comments,date posted,latitude,longitude
1949,san marcos,tx,us,cylinder,2700,45 minutes,This event took place in early fall around 1949-50. It occurred after a Boy Scout meeting in the Baptist Church. The Baptist Church sit,2004,29.8830556,-97.9411111
1956,edna,tx,us,disk,20,1/2 hour,"My older brother and twin sister were leaving the only Edna theater at about 9 PM,...we had our bikes and I took a different route home",2004,28.9783333,-96.6458333
1960,kaneohe,hi,us,fireball,900,15 minutes,"AS a Marine 1st Lt. flying an FJ4B fighter/attack aircraft on a solo night exercise, I was at 50,000' in a ""clean"" aircraft (no ordinan",2004,21.4180556,-157.8036111
1961,bristol,tn,us,disk,300,5 minutes,My father is now 89 my brother 52 the girl with us now 51 myself 49 and the other fellow which worked with my father if he's still livi,2007,36.595,-82.1888889
1965,norwalk,ct,us,disk,1200,20 minutes,A bright orange color changing to reddish color disk/saucer was observed hovering above power transmission lines.,1999,41.1175,-73.4083333
1966,pell city,al,us,disk,180,3  minutes,"Strobe Lighted disk shape object observed close, at low speeds, and low altitude in Oct 1966 in Pell City Alabama",2009,33.5861111,-86.2861111
1966,live oak,fl,us,disk,120,several minutes,Saucer zaps energy from powerline as my pregnant mother receives mental signals not to pass info,2005,30.2947222,-82.9841667
1968,hawthorne,ca,us,disk,300,5 min.,"ROUND , ORANGE , WITH WHAT I WOULD SAY WAS POLISHED METAL OF SOME KIND AROUND THE EDGES .",2003,33.9163889,-118.3516667
1968,brevard,nc,us,fireball,180,3 minutes,silent red /orange mass of energy floated by three of us in western North Carolina in the 60s,2008,35.2333333,-82.7344444
1970,bellmore,ny,us,disk,1800,30 min.,silver disc seen by family and neighbors,2000,40.6686111,-73.5275
1970,manchester,ky,us,other,180,3 minutes,"Slow moving, silent craft accelerated at an unbelievable angle and speed.",2008,37.1536111,-83.7619444
1971,lexington,nc,us,disk,30,30 seconds,"green oval shaped light over my local church,power lines down..",2010,35.8238889,-80.2536111
1972,harlan county,ky,us,disk,1200,20minutes,"On october 10, 1972 myself,my 5yrs.daughter,2 neices and 2 nephews were playing tag in the back yard .When we looked over on the ridge",2005,36.8430556,-83.3219444
1972,west bloomfield,mi,us,disk,120,2 minutes,"The UFO was so close, my battery in the car went to zero amps, stalling the engine, turning off my lights and radio.",2007,42.5377778,-83.2330556
1973,niantic,ct,us,disk,1800,20-30 min,"Oh, what a night !  Two (2) saucer-shaped, glowing green objects and one (1) brilliantly glowing sphere gliding over the lake.",2003,41.3252778,-72.1936111
1974,hudson,ma,us,other,2700,45 minutes,Not sure of the eact month or year of this sighting but it was in the fall of 74 or 75. Was walking home around dusk and saw a bright l,1999,42.3916667,-71.5666667
1974,hudson,ks,us,fireball,1200,one hour?,The light chased us.,2004,38.1055556,-98.6597222
1975,north charleston,sc,us,fireball,360,5-6 minutes,Several Flashing UFO lights over Charleston Naval Base in S.C.,2008,32.8544444,-79.975
1976,washougal,wa,us,disk,60,1 minute,Three extremely large lights hanging above nearby trees.,2014,45.5827778,-122.3522222
1977,san antonio,tx,us,other,30,30 seconds,i was about six or seven and my family and me were sitting next to a window at home eating when a type of dark ball hit the screen wind,2005,29.4238889,-98.4933333
1977,louisville,ky,us,fireball,30,approx: 30 seconds,HBCCUFO CANADIAN REPORT:  Pilot Sighting Of Unusual Light.,2004,38.2541667,-85.7594444
1978,elmont,ny,us,cylinder,300,5min,A memory I will never forget that happened meny years ago.,2007,40.7008333,-73.7133333
1979,poughkeepsie,ny,us,delta,900,15 minutes,"1/4 moon-like,  its 'chord' or flat side parallel to horizon,  bright orange-red glow,  completely silent, no features.",2005,41.7002778,-73.9213889
1979,san diego,ca,us,disk,180,3 minutes,"My 2nd UFO sighting, October 1979",2001,32.7152778,-117.1563889
1979,security,co,us,other,1800,30mins.,"very low clouds all different colors,search lights were seen shining down out of the clouds on the houses and streets. this event was s",1999,38.7583333,-104.7425
1980,houston,tx,us,disk,180,3 min,"Sphere, No lights,  moving through neighborhoods above tree tops, over busy streets in Houston in 1980.",2005,29.7630556,-95.3630556
1980,dallas,tx,us,other,300,5 minutes,Strange shape shifting craft of pure light energy.,2002,32.7833333,-96.8
1980,manchester,nh,us,fireball,300,3 to 5 min,A red glowing sphere stopped and watched me.,2010,42.9955556,-71.4552778
1984,houston,tx,us,disk,60,1 minute,2 experience with unkown,2012,29.7630556,-95.3630556
1984,traverse city,mi,us,other,120,couple minutes,translucent football seen over city airport,2003,44.7630556,-85.6205556
1984,white plains,ny,us,other,20,15-20 seconds,Saw a hugh object in sky with lights intermittently placed not making any noise traveling north in the night sky.It had no real identif,1999,41.0338889,-73.7633333
1988,milwaukee,wi,us,delta,600,10 minutes,A silent black triangular object with no lights moved over us as we walked our dog across a school playground.,2007,43.0388889,-87.9063889
1988,new gloucester,me,us,other,120,few minutes,I'm still afraid to look at the sky at night.,2009,43.9627778,-70.2830556
1988,boulder,co,us,fireball,60,1 minute,"Three Stars Begin to Move Randomly, Stop, Change Direction, Move Again, And Then Vanish",2006,40.015,-105.27
1988,seattle,wa,us,other,2,2 sec.,Two adult witnesses are stunned by the sound of an object that streaks above the home they are in.,2004,47.6063889,-122.3308333
1989,calabasas,ca,us,disk,300,approx 5 min,Unidentified object on Mulholland Highway.,2004,34.1577778,-118.6375
1989,centralia,wa,us,delta,60,1 minute,"A huge triangularly shaped silent object that blotted out 25 degrees of the sky, lighted by four glowing points.",2004,46.7163889,-122.9530556
1990,ashburn,ga,us,delta,120,2 minutes,Translucent Craft that makes No Sound While Moving,2007,31.7058333,-83.6533333
1991,frisco,nc,us,other,1800,30 minutes,A friend and myself were standing on the shore of the Pamlico sound as we observed 4 objects moving in up and down motions for about 30,1999,35.235,-75.6288889
1991,harrisburg,pa,us,delta,600,10 minutes,We observed 3 triangular shaped high speed objects!,2003,40.2736111,-76.8847222
1992,panama city,fl,us,other,3600,1 hour(?),During a road trip to Panama City a friend and I witnessed a pair of luminous light formations appear and dissappear over the Gulf.,1999,30.1586111,-85.6602778
1992,stafford,tx,us,other,10,10 seconds,A man emerges from a beam of light that shines on a grassy field at night and he runs towards the Texas Instruments parking lot.,2012,29.6158333,-95.5575
1992,seymour,tn,us,cylinder,60,1min. 39s,Stationary Elongated UFO 200ft above vacant field with city lights on bottom,2008,35.8905556,-83.7247222
1992,weatherford,tx,us,other,30,30 seconds,"Black or dark grey.  Too big, too low, too slow, too quiet, for a normal aircraft.",2005,32.7591667,-97.7969444
1993,peoria,il,us,fireball,8,8 seconds,"Light over Peoria, IL that moves slowly, stops in mid-air, hovers, changes colors, shoots in opposite direction and disappears.",2005,40.6936111,-89.5888889
1993,carthage,tn,us,other,60,less than 1 min,1 object with green and red lights,2003,36.2522222,-85.9516667
1994,burnt hills,ny,us,cylinder,120,2 minutes,"Giant rectangular craft (resembling an upside-down aircraft carrier) over highway near Saratoga, NY.",2013,42.9097222,-73.8955556
1994,pinebergen,ar,us,fireball,5,5 seconds,"Round, bright, low flying object silently speeds West of Arkansas town at 11:30pm, 10/10/94.",2001,34.1027778,-91.9922222
1995,milwaukee,wi,us,other,120,2 min.,"Man  on Hwy 43 SW of Milwaukee sees large, bright blue light streak by his car, descend, turn, cross road ahead, strobe. Bizarre!",1999,43.0388889,-87.9063889
1995,oakland,ca,us,other,60,1 minute,"Woman repts.  bright light in NW sky, suddenly approaches her, flies slowly overhead.  Swept wings, 2 blurry lights either side.",1999,37.8044444,-122.2697222
1996,higginsville,mo,us,delta,3,3sec,"illuminated triangular craft, flying at high speed from South to North",2000,39.0725,-93.7169444
1996,charleston,sc,us,fireball,300,5 min,"Flashing object above Charleston, SC",2003,32.7763889,-79.9311111
1996,monroe county,oh,us,cylinder,60,1 minute,Looked like it went through the hillside,2004,39.4402778,-84.3622222
1997,connersville,in,us,delta,14400,4 hours,"3 differants types , cluster ,delta , and one in a 3 pointed star design . followed it for six miles .",1999,39.6411111,-85.1411111
1997,mesa,az,us,disk,30,30 seconds,A small dark purple quad-thruster craft hovering 200-300 feet in the sky. 500 Lights On Object0: Yes,2008,33.4222222,-111.8219444
1997,bonaire,ga,us,delta,300,<5 minutes,Triangular Object Sighted at Very Close Range,2007,32.5436111,-83.5961111
1997,austin,mn,us,other,3600,1-hour,i was traveling northbound on state highway 105 approximately 8 miles south of Austin MN when an object came down directly above my car,1999,43.6666667,-92.9744444
1998,hollywood,ca,us,other,300,5 minutes,I was standing outside on Sunset Blvd. at Vine and looked straight up which I normally do not do. I saw three bright white lights in a,1998,34.0983333,-118.3258333
1998,phoenix,az,us,fireball,15,10 to 15 sec,bright green moving north to north east. it was bright green and kinda clear. quite fast too.,1999,33.4483333,-112.0733333
1998,elgin,il,us,cylinder,1800,30 +/- min,While looking up at sky I noticed a bright light hovering above the sky. then I noticed a jet airliner traveling in the same area and I,1998,42.0372222,-88.2811111
1998,las vegas,nv,us,cylinder,600,10 minutes,"White, vertical cigar shape floating around in the eastern sky.",1998,36.175,-115.1363889
1998,las vegas,nv,us,disk,2700,45min.,Ufo sighting in las vegas near Area51,1999,36.175,-115.1363889
1998,spokane,wa,us,delta,600,10 minutes,Dark boomerange object seen for ten minutes hovering over the freeway with a bright light out the front that lit up the fields. No jet,2001,47.6588889,-117.425
1998,mooresville,nc,us,fireball,2,2 seconds,Star gazing in back yard with telescope and binos. Saw shooting star and an oblong shape of light.,1998,35.5847222,-80.8102778
1998,delano,tn,us,fireball,15,15 seconds,I came home from work one night and I seen a bright fire like ball go across the top ofthe mountain and it was going fast then it stopp,2003,35.265,-84.5533333
1999,martinez,ca,us,other,3600,1 hour,"Bright objects, red and green flashing lights (and a diffuse white light off to one side of the larger of the two objects), about 30 de",1999,38.0194444,-122.1330556
1999,kansas city,ks,us,other,600,5-10 min.,Orange object over city.,1999,39.1141667,-94.6272222
1999,dallas,tx,us,other,10,10 seconds,group of   twinkling lights at high altitude,2001,32.7833333,-96.8
1999,san diego,ca,us,fireball,3600,1 hour,"At 10:45 in the morning, my father and I noticed a small stationary object in the sky.",1999,32.7152778,-117.1563889
1999,kennewick,wa,us,disk,45,45 secs,Standing outside saying goodby to family members and pointing to Chem-Trails,1999,46.2113889,-119.1361111
1999,hayward,ca,us,disk,90,60-90 sec,Many different colored glowing  objects,2001,37.6688889,-122.0797222
1999,ashland,mo,us,fireball,0,"two seperate times, 10 se","We saw on our local news that in Jefferson City,(20 minutes from our home), a craft was spotted reciently. We have not actually observe",1999,38.7744444,-92.2569444
1999,rachel,nv,us,fireball,10800,3 hours,Bright lights with incredible agility seen from mailbox at Area 51 on UFO highway in Nevada for several hourse.,2005,37.6447222,-115.7427778
1999,humphrey,ne,us,disk,300,5 min,Object moving erratically in sky stopped by spot light,2006,41.6916667,-97.4841667
1999,elgin,or,us,delta,240,4 minutes,Object silently traveled north -northwest. It was V shaped with five orange lights on the perimeter and one white ligh in the center of,1999,45.565,-117.9163889
1999,lewiston,mi,us,disk,2700,45 minutes,Oval shaped with lights all around it in a haze with several smaller lights flying all around it.,1999,44.8838889,-84.3055556
2000,perryville,mo,us,disk,180,3 minutes,"The craft was big, orange, and oval shaped.",2000,37.7241667,-89.8611111
2000,boynton beach,fl,us,other,10,10 seconds,Unusual light formation moving extremely fast across the sky.,2000,26.525,-80.0666667
2000,brinktown,mo,us,fireball,1800,30 min.,3 bright golden lights moving independently above the tree line flaring and fading intermittently for approx. 15 min.,2000,38.1266667,-92.0844444
2000,florence,ky,us,fireball,5,4-5 seconds,"Two objects traveling side by side pass over, as one begins to zig, zag it's path.",2000,38.9988889,-84.6266667
2000,seattle,wa,us,other,10,10 sec,Dark object in the shape of a (4) after dusk in West Seattle,2003,47.6063889,-122.3308333
2000,port orchard,wa,us,delta,60,1min,One night my window started to flash,2009,47.5405556,-122.635
1973,jupiter,fl,us,disk,14400,possible 4 hrs.,EGG-SHAPED OBJECT EMITS LIGHT RAY AND PEOPLE LOSE 4 HOURS,2000,26.9338889,-80.0944444
1978,brighton,mi,us,disk,300,5 miniutes,round revolving lights reflecting on the fog,2002,42.5294444,-83.7802778
1987,minnetonka,mn,us,fireball,30,30 seconds,"White light moves west to east, suddenly stops, then moves south at a high rate of speed.",2013,44.9133333,-93.5030556
1987,otto,mo,us,fireball,60,60 seconds,bright blue ball of light.,2000,38.3708333,-90.5002778
1989,kewanee,il,us,disk,180,2 to 3 minutes,HBCCUFO CANADIAN REPORT:  Large glowing sphere was positioned almost directly overhead.,2003,41.2455556,-89.9247222
1989,kewanee,il,us,disk,300,5 minutes,"Reddish-orange sphere seen outside Kewanee, IL",2002,41.2455556,-89.9247222
1992,albuquerque,nm,us,disk,900,15 minutes,"Six Spheres of light move into my vision over the 92 Albuquerque Balloon Fiesta,then vanish straight up.",2001,35.0844444,-106.6505556
1994,jackson,nj,us,delta,300,5mins,triangle UFO in jackson NJ  Countyline 526   over the old fire station next to the trailer park,2002,39.7763889,-74.8627778
1994,riverside,ca,us,delta,4,4 seconds,"Double white lights in chevron shape flying north to south about the size of the constellation of the Pleades, covered half the sky in",1999,33.9533333,-117.3952778
1995,new york city,ny,us,other,720,12 min.,"Young man, mother witness watch strange red obj. 45 deg. above horizon w/ binocular.  Obj. suddenly fades, disappears from sight.",1999,40.7141667,-74.0063889
1995,huntington,wv,us,other,120,2 min.,"Young man & grandfather see a ""large, orange, round or oval"" obj. move along horizon very fast, hover, move erratically.  Bizarre!",1999,38.4191667,-82.4452778
1996,bismarck,nd,us,other,0,6,5 white lights in formation,2005,46.8083333,-100.7833333
1996,damascus,va,us,fireball,60,60 sec.,"1996 SIGHTING IN DAMASCUS, VA. WHILE CAMPING IN THE CHEROKEE NATIONAL FOREST.",2003,36.6336111,-81.7838889
1998,montara,ca,us,other,3600,1 hour,Boomerang shaped lit up at the neds and center of the boomerang.,1998,37.5422222,-122.515
1998,mount carmel,tn,us,fireball,10,10 seconds,Bright shiny object splits in two and disappears above horizon.,1998,36.5452778,-82.6611111
1998,highland,in,us,disk,0,,"Possible shperical object in northern sky.  Colors were green over yellow over red.  Disappeard, then reappeared west of original locat",1998,39.7944444,-87.3958333
1998,highland,in,us,disk,14400,4 hrs +,"Spherical.  Red, yellow, and green lights.  Below clouds, yet very high up.",1998,39.7944444,-87.3958333
1998,bar harbor,me,us,disk,30,30 seconds,My friend Steven and I were crossing over to Bar Island at low tide when we witnesses a green spherical object crossing the sky at a gr,1998,44.3875,-68.2044444
1998,elk grove,ca,us,fireball,4,4 seconds,Greenish blue fireball streaking across horizon,1998,38.4088889,-121.3705556
1999,montgomery,al,us,fireball,180,3 minutes,Bright light coming from back yard and a surreal sensation of forboding.,2003,32.3666667,-86.3
1999,los angeles,ca,us,fireball,300,5min,It was a large bright light sitting stationary in the sky. Within our atmosphere. Not a star. It did not move or change shape and was t,1999,34.0522222,-118.2427778
1999,three rivers,mi,us,disk,600,10minuets,While dirving to work this monday morning the 11th of October I spotted two jets flying toward the horizion. Becouse of the rising sun,1999,41.9438889,-85.6325
1999,canby,or,us,fireball,10,10 seconds,"i saw bright light come out of clouds, 2 aircraft came from behind and appeared to shot at the light, light went back into the clouds",1999,45.2630556,-122.6913889
1999,portville,ny,us,disk,30,30 seconds,The object was just below the tree line. The object was light up by a yellowish light with blue lights.You could see the windows in it,1999,42.0386111,-78.3411111
1999,portville,ny,us,disk,30,30 seconds,Was oval shaped had different colored lights all the way around the center of the object. The top was yellowish with windows with light,1999,42.0386111,-78.3411111
1999,portville,ny,us,disk,60,1 minute,it was a beautiful oval shaped object that had huge windows lite with every color you can imagine.  we saw this object to the left of t,1999,42.0386111,-78.3411111
1999,portville,ny,us,disk,60,1 minute,oval shaped with colorful lights all around with huge windows lite up very colorful most beautiful thing in the sky. in valley area it,1999,42.0386111,-78.3411111
1999,kirbyville,mo,us,other,5400,1.5hours,"About 2030 cst I noticed what apeared to be a ""tumbler"" a flashing satellite. After observing for approx.10 min. I realized that the ob",1999,36.6230556,-93.1638889
1999,winnemucca,nv,us,cylinder,2,seconds,"oblong, extremely large and  bright object in sky, going behind mountains. Object much larger than a meteorite.",1999,40.9730556,-117.7347222
1999,ashland,or,us,delta,45,30-45 sec.,I was looking into the sky towards the high east watching what appeared to be a passenger jet cross the sky when my periphial vision ca,1999,42.1947222,-122.7083333
1999,augusta,ks,us,fireball,600,10 mins,Object was at 45 degrees above southern horizon. Being stationary for 5 mins. and then executed some right angle maneuvers. Focal dista,1999,37.6866667,-96.9763889
1999,montgomery,tx,us,fireball,3600,1hrs,Pinpoint of light travelled from east to west breifly then hovered for about an hour then disappeared.,1999,30.3880556,-95.6961111
1999,eureka springs,ar,us,fireball,900,15 min.,"Bright light due south, traveling east extremely slowly. Bright flash given off from object every 10 seconds, with a dim flash every 3",1999,36.4011111,-93.7377778
1999,addison,il,us,disk,600,10 min,"Saucer shaped object,with rows of red lights on bottom side; one white lighttop and bottom",1999,41.9316667,-87.9888889
2000,watertown,ny,us,fireball,30,30 seconds,Was looking at the near full moon with binoculars when a very bright round light appeared to the left of the moon. at arms lenght it wa,2000,43.9747222,-75.9111111
2000,elverta,ca,us,fireball,30,hours,White starlike lights in sky that blink red and blue and move erratically over Sacramento region.,2000,38.7138889,-121.4616667
2000,whittier,ca,us,fireball,1500,20-25 mins,UFO ENCOUNTER LESS THAN 300 FEET,2011,33.9791667,-118.0319444
1950,pikeville,ky,us,disk,600,hr,SEVENTY SOME  FLYING DISK OBSERVED IN  1950,2005,37.4791667,-82.5188889
1952,kansas city,mo,us,disk,90,90 sec.,1952 daylight sighting of multiple discs in formation,2008,39.0997222,-94.5783333
1954,flatwoods,wv,us,disk,60,1 minute,"I saw the craft go across the horizon.  It appeared to be on fire, I first thought it was a plane going down.  It landed near a farm.",2013,38.7230556,-80.65
1956,newport,nh,us,cylinder,300,5 minutes,"Disk with glass center section, and flames behind the glass",2005,43.3652778,-72.1738889
1957,nelchina,ak,us,other,180,3 minutes maximum,"This incident occurred about October of 1956 or '57. At the time, I was Assistant station manager for a major airline in Anchorage as",2006,61.9919444,-146.7686111
1957,martelle,ia,us,cylinder,0,unk,I Fly and have been in Viet Nam and around the world and have never seen anything like it again.,2001,42.0216667,-91.3597222
1957,paterson,nj,us,disk,10,10 seconds,Formation of approximately 8 light gray metallic disks silently crossing the night sky around October 1957 in northern NJ,2005,40.9166667,-74.1722222
1959,new york city,ny,us,other,0,,A round object the shape of a bubble hovered by a window of a four or five story building. The object was silent. Some 20 feet os so ov,2003,40.7141667,-74.0063889
1959,jacksonville,il,us,other,60,1 minute,"Late 1959, bright lights from a hovering object of unknown shape making a zed-zid zed-zid electrical sound.",2005,39.7338889,-90.2288889
1961,toledo,oh,us,disk,180,2-3 mins.,Observed dull silver metallic sphere hovering outside of bedroom window as a child.  Had direct communication with sphere.,1998,41.6638889,-83.5552778
1961,tulsa,ok,us,disk,120,2 minutes,"October, 1961, Tulsa Oklahoma: low altitude, slow, disk object(s); high speed turns, v. high accelleration.",2007,36.1538889,-95.9925
1961,nashville,tn,us,disk,1800,30 minutes,"In October 1961, a silvery flattened disk hovered motionless over a local school fair for more than 30 minutes.",2012,36.1658333,-86.7844444
1961,graham,nc,us,delta,30,30 seconds,"3 flat, large  white lights in delta pattern, no sound, flying at tree-top level at 35-40 mph",2002,36.0688889,-79.4008333
1965,biloxi,ms,us,other,900,15 min,"Cloud, hovering then moving at right angles with pulsating light coming from within",1999,30.3958333,-88.8852778
1965,colonial heights,va,us,disk,120,2 minutes,Saw sphere ping-ponging up and down and side to side in blue sky.,2000,37.2438889,-77.4105556
1965,dushore,pa,us,disk,300,5 minutes,It could move very slowly or very quickly but either way it moved without making any noise.,2005,41.5241667,-76.4011111
1966,buffalo,ny,us,fireball,240,4 minutes,"One of the bright stars moved north, curved upward, flew in a wide arc, then accelerated up into the cosmos.",2002,42.8863889,-78.8786111
1966,anacortes,wa,us,fireball,1200,20 mins.,"20 miles driving toward Anacortes,a friend and I were listening to a radio station in Anacortes. The DJ said he had recieved calls abou",2000,48.5127778,-122.6113889
1966,anamosa,ia,us,other,60,60 seconds,"large quiet  craft, covered with blackness, and ""stars"" to not be noticed, moving slowly southwest to north north east.",2000,42.1083333,-91.285
1966,corvallis,or,us,disk,120,2 minutes,"Saucer with no sound flew 100 feet above ground, changed direction then left atmosphere in a split second.",1999,44.5647222,-123.2608333
1967,chaffee,ny,us,disk,600,10 minutes,"34 years ago and still "" seeking the truth""",2001,42.5680556,-78.4791667
1967,greenville,il,us,disk,30,30 seconds,"My son and I went to a ballpark close by to play- we were the only ones there, I happened to look up and right over us, were 3 round uf",2007,38.8922222,-89.4130556
1967,minneapolis,mn,us,disk,10,10 seconds,"In October 1967, 2 Disks sited heading north over Minneapolis MN.",2005,44.98,-93.2636111
1968,boston,ma,us,cylinder,1200,20 minutes,"as i woke up in the early morning a bright redish orange light bathed the living room,at first i thought it was a fire but the light wa",2005,42.3583333,-71.0602778
1968,kennebunkport,me,us,disk,600,5-10 minutes,While at the boathouse at St.Athonys one night we noticed what at first we thought was a bright star getting larger.It seemed to dart a,2002,43.3616667,-70.4772222
1969,san francisco,ca,us,disk,600,5-10 min,It was in the afternoon just before sunset at 20 Steiner St SF CA I saw above me and there was one other person who was with me on the,1999,37.775,-122.4183333
1970,new york city,ny,us,disk,180,3 minutes,"Hoovering disk like object by Father and Son, Brookyln, NY 1970",2008,40.7141667,-74.0063889
1970,bentonville,ar,us,other,14400,about 4 hours,Hoseshoe shaped,2006,36.3727778,-94.2086111
1970,tampa,fl,us,other,900,15 minutes,36 year old reports an object he saw with his mother 31 years ago.,2001,27.9472222,-82.4586111
1970,new york city,ny,us,disk,300,5 mins,"Saucer/disklike craft, with multi-colored lights sighted in Bayridge Brooklyn in 1970 with many eyewitnesses.",2001,40.7141667,-74.0063889
1971,pasadena,ca,us,disk,180,3 min,Powerless over UFO sighting.,2004,34.1477778,-118.1436111
1972,potwin,ks,us,other,10800,2-3 hours,Iwas abducted around age 7 or 8. They came will I WAS Asleep. they look into my room from the hall. They took me to a room. I think the,1999,37.9388889,-97.0194444
1972,denton,tx,us,other,600,less than 10 minutes but,Slow moving object splits and one part sped away while the bigger part slowly moved in the opposite direction.,2011,33.2147222,-97.1327778
1972,mosheim,tx,us,disk,1800,20-30 minutes,Classic saucer shape seen in the early seventies.,2004,31.6261111,-97.5997222
1972,monroe,wa,us,cylinder,900,15 min,STOP AND GO THE SIZE OF A LARG CAR WITH NO WINDOWS,2001,47.8555556,-121.9697222
1972,sweet home,or,us,other,0,ufo,"Ligthning coming out of a cloud hovering, waves of clouds come out an going backin, no sound look at that?",2009,44.3977778,-122.735
1973,montezuma,in,us,disk,900,15 minutes,"We saw a large glowing sphere that looked like the moon, but was obviously not since it was very close to us and could manuver.",2005,39.7927778,-87.3708333
1973,virginia beach,va,us,disk,1800,10-30 minutes,"Group of  friends an I  follow a UFO on bicycles, I have a sighting alone about a week later.",2011,36.8527778,-75.9783333
1973,bloomington,in,us,fireball,1200,20 minutes,Three large bright white craft  interacting & manuevering rapidly accross a quadrant of night sky.,2013,39.1652778,-86.5263889
1973,roseburg,or,us,cylinder,7200,"not sure,maybe 2 hours","We were on the outskirts of town, just passing the sewage treatment plant, when this object with blinding white light enveloped the car",2008,43.2166667,-123.3405556
1973,beatty,nv,us,disk,7200,2 hours,Lights in the sky and lost time.,2011,36.9086111,-116.7583333
1973,hixson,tn,us,disk,37800,1 1/2 hours,"Oval, brilliant lights, red glow, windows, metallic, no sound; After we lost sight of it and went to find it, it showed itself to us.",2005,35.1405556,-85.2327778
1973,valley city,oh,us,disk,300,5 minutes,"It was a star shaped object travelling south that stopped, changed colors, and sped off dissapearing in the night sky.",2002,41.2377778,-81.9316667
1974,denton,tx,us,other,600,10 min,"I was walking home from the Library at North Texas State University after the Library closed.  From a distance, I saw a large red glowi",2008,33.2147222,-97.1327778
1974,weirton,wv,us,disk,240,4 minutes,"Upon coming home one evening in the early spring, I saw in the eastern horizon three circular objects that looked like three full mooon",2000,40.4188889,-80.5897222
1974,deerwood,mn,us,other,2,2 seconds,"Sighting 3  An incidence occurred in mid-October, 1974. I picked my son up from wrestling practice in the evening after school. We live",2006,46.4736111,-93.8986111
1974,chester,nj,us,fireball,600,10 minutes,Three bright star like objects moving across the night sky at the speed of light and stopping on a dime.,2006,40.7841667,-74.6972222
1975,maricopa,az,us,other,1200,20 min,"Group of 4 Orange Objects land near hills just west of small town of Maricopa Arizona... Oct, 1975",2008,33.0580556,-112.0469444
1976,hartville,oh,us,disk,120,2 minutes or less,A disk shaped flying object followed the path of our car just above the telephone lines.,2002,40.9636111,-81.3313889
1976,fairport,ny,us,disk,600,10 minutes,Disk shaped UFO with continous changing color band in the middle.  Hoovered for a few minutes about 3 stories off the ground above a cr,2004,43.0986111,-77.4422222
1976,thonotosassa,fl,us,disk,900,15 minutes,"Mid-1970's Thonotosassa, Florida sighting at Stacey and Knights Griffin",2006,28.0611111,-82.3025
1977,fountain valley,ca,us,other,360,6 minutes,"My brother, his friend and I saw an orange pyramid-shaped object in the sky about 25 yards away from us and about 25 yards up.  We were",1999,33.7091667,-117.9527778
1977,ferndale,ca,us,other,60,1 minute,"Silhouette, or dark object of craft appeared on moonless, starlit-night, backlit by glow straight overhead, appeared to be approaching",2005,40.5763889,-124.2627778
1978,windsor,nc,us,cone,300,5min,saw while parking with girl friend. rising full moonin back ground. 25 ft up. f 50 yrs away over field. hovering. completly silent. one,2003,35.9983333,-76.9463889
1978,lecompte,la,us,disk,300,5 minutes,I believe this object was either a test vehicle of some sort or it was not of this world.,2002,31.0944444,-92.4002778
1978,francesville,in,us,cylinder,900,approx. 15 min,Object hovered for apprx. 5 min. then proceeded west - it was apprx. 300' long 50-75' wide 50-75' high w/lights.,2006,40.9852778,-86.8794444
1979,lomita,ca,us,disk,1200,20 minutes,Silent disk in afternoon daylight with over twenty witnesses,2008,33.7922222,-118.3141667
1979,columbia,md,us,cylinder,120,2 minutes,"Large, low-flying, slow moving, silent black rectangle with no lights",2013,39.2402778,-76.8397222
1979,buffalo,ny,us,fireball,10,5-10 sec,Two bright fast-moving star-like objects with one traveling in a zig-zag motion.,2005,42.8863889,-78.8786111
1979,olympia,wa,us,disk,7200,2 hours,Dancing lights over Olympia,2008,47.0380556,-122.8994444
1979,pittsburgh,pa,us,disk,300,5 min,Disk appeared over stadium at end of game... spun like a coin on a table...game ended ... never heard a thing about it.,2000,40.4405556,-79.9961111
1979,cranbury,nj,us,fireball,240,4 minutes,8 UFOs in a circle suddenly take off radially away from each other.,2013,40.3161111,-74.5141667
1980,fremont,ca,us,other,30,30 seconds,"A heavy rain night off work and was amazed how heavy it was raining, awake and looking out thru my skylight. Suddenly bright overwhelmi",2001,37.5483333,-121.9875
1980,mountainboro,al,us,fireball,20,20 seconds,Ball of Fire that changed into a cone shape.,2012,34.1469444,-86.1305556
1980,shirleysburg,pa,us,other,600,10 minutes,"Sometime during the late 1970-s and early 1980's, I can't remember the time of the year.   I was in my home in rural Shirleysburg, PA.",2012,40.2977778,-77.8744444
1980,jersey city,nj,us,cylinder,180,2-3 minutes,Blimp shaped object with extremely bright lights hovered then rapidly dashed into the night's sky.,2005,40.7280556,-74.0780556
1980,homer,la,us,disk,0,?,bright light becoming near and more intense in rear veiw window of car,2001,32.7916667,-93.0555556
1981,hesperia,mi,us,disk,2400,40 minutes,Two people in car see green oval object and lost time,2009,43.5688889,-86.0394444
1982,swartz creek,mi,us,fireball,240,3 to 4 minutes,blazing sphere across the southern sky from 1982,2003,42.9572222,-83.8305556
1983,ayer,ma,us,other,20,20 seconds,Zero to top Speed Instantaneously,2009,42.5611111,-71.5902778
1983,tarboro,nc,us,disk,180,3 minutes,it was as large as our house...and silent enough no one inside heard a thing...nor did i,2003,35.8966667,-77.5361111
1984,waldport,or,us,fireball,600,10 minutes,Bright light of a  fast moving craft frightened me in the night on the Oregon Coast.,2001,44.4269444,-124.0675
1984,chatsworth,ca,us,fireball,45,45 seconds,Light approaches at high rate of speed and makes a ninety degree turn.,2007,34.2572222,-118.6002778
1984,acton,me,us,delta,180,3 min.,"Silent, very large, one white headlight, red lights around edges",1999,43.5341667,-70.9102778
1985,brandon,fl,us,delta,900,15 min,"triangle SHIP 60 to 80 feet high,SPEED 3 TO 5 MPH,I SAW IT ALL,....................",2007,27.9375,-82.2861111
1985,holton,mi,us,fireball,240,3-4 minutes,Unknown light makes 90 degree turn and disappears.,2005,43.4133333,-86.0794444
1985,monroe,nc,us,disk,300,5 min,"Years ago, my husband's aunt and I witnessed something very strange on the way to work early one morning. It was about 5:30am and we we",2007,34.9852778,-80.5497222
1985,jefferson,oh,us,delta,3600,1 hour,"Three lights,possibly single or part of object hovered over treeline changing color,and shape.",2000,41.7386111,-80.77
1985,lawrence,ks,us,disk,300,< 5 minutes,"Red Light seen in Lawrence, Kansas, during Johnny Carson's Monologue",2009,38.9716667,-95.235
1986,klamath falls,or,us,disk,2700,45 minutes,"BRIGHT OBJECT DROPPING ""FIRECRACKERS"" FROM IT - IT SEEMED TO KNOW I COULD SEE IT - VANISHED IN A TYPE OF EXPLOSION",2004,42.225,-121.7805556
1986,wheeling,wv,us,fireball,10,10 seconds,Missing time after seeing something that looked like the Northern lights.,2002,40.0638889,-80.7211111
1987,west palm beach,fl,us,other,10,one hour,"An ""out of the body"" experience",2001,26.7052778,-80.0366667
1987,roseburg,or,us,disk,1800,30 mins.,Two small glowing oval orange objects and one larger triangle craft in rural Oregon.,2008,43.2166667,-123.3405556
1987,alstead,nh,us,fireball,1800,30 mins.,"sitting   in  a  car in a open  field, keeping in mind this is in a  town where  we are in  the hills.  the  field during  the day has",2005,43.1488889,-72.3611111
1987,louisburg,nc,us,delta,180,3 minutes,Large black triangular object with lights on each side and at the points making no discernible noise.,2001,36.0988889,-78.3013889
1987,wappingers falls,ny,us,other,0,?,2nd of 2,2002,41.5963889,-73.9113889
1989,mackay,id,us,disk,180,2 to 3 min,LARGE SAUCER,2010,43.9147222,-113.6125
1989,winchester,ky,us,disk,300,5 minutes,3 starlike objects land on 1 large orange oval object in full daylight in sight of dozens of witnesses.,2006,37.99,-84.1797222
1989,jacksonville,il,us,disk,300,five minutes,"Three gold circle UFOs fly in formation, warp drive away and disappear.",2010,39.7338889,-90.2288889
1989,pawling,ny,us,disk,300,5 minutes,"Large oval craft with lights above house on north side of Route 55 between Pawling and Freedom Plains, NY, late 1980's.",2005,41.5619444,-73.6030556
1989,carmichael,ca,us,cylinder,10,10sec.,Black rectangular craft over carmichael.,2004,38.6172222,-121.3272222
1989,orono,me,us,disk,20,15-20 seconds,Silent Lo-flying Craft with Dome and Bright White Lights,2003,44.8830556,-68.6725
1990,pateros,wa,us,disk,300,05min,"One Gray metal oval disc, aporx. 10'x50', clear sky,  1 qaurter mile away",2006,48.0511111,-119.9022222
1990,san pedro,ca,us,fireball,120,2min,"a small light in the sky, making the shape of a equiangular triangle then shooting away at a high rate of speed.",2005,33.7358333,-118.2913889
1990,jamestown,ny,us,fireball,1200,20 minutes,A row of porthole shaped lights hovering at an altitude of approx. 500 feet spanning a distance of about 1 mile.,2007,42.0969444,-79.2355556
1991,easley,sc,us,other,900,fifteen minutes,Hockey-puck-shaped-thing.,2002,34.8297222,-82.6016667
1991,wilmington,ca,us,disk,900,15 minutes,Patterned disks over southern california sky.,2008,33.78,-118.2616667
1991,maryville,tn,us,cylinder,300,5 minutes,"Silver, cigar shaped object north of downtown Maryville, TN in or around 1991",2012,35.7563889,-83.9705556
1991,little rock,ar,us,delta,300,5 minutes,"Triangular arrangements of lights appearing to begin to land on freeway, miltary-ish cars mobilze around it",2012,34.7463889,-92.2894444
1991,mckenzie,tn,us,disk,900,15 minutes,"I saw a saucer shaped obiect with blue, red, green flashing lights on the way home from college.",2008,36.1325,-88.5186111
1991,las vegas,nv,us,cylinder,5,5 seconds,For seven years I have kept this fairly quiet. I was walking my dog on a clear dark night where I live on the north west side of Las Ve,1999,36.175,-115.1363889
1991,lafayette,ga,us,other,900,15 min.,A small globe descended from beneath the larger craft.,2004,34.7047222,-85.2819444
1992,dublin,ga,us,delta,1200,20 minutes,"While driving home from out-of-town, I watched a dot in the sky that later hoovered over my car.",2002,32.5402778,-82.9038889
1992,springfield,mo,us,disk,90,90 seconds,MISSOURI INVESTIGATORS GROUP Report:  We saw a large football shaped object hovering above an apartment complex .,2009,37.2152778,-93.2980556
1992,longview,tx,us,other,20,0.013888889,I observed one nite several objects flying in a kind of oval formation and change to a vee formation. There wasn't any sound.,1999,32.5005556,-94.7402778
1993,tempe,az,us,delta,900,15 minutes,My friend and I saw a triangle made of smaller triangles fly over us at a low altitude.,1999,33.4147222,-111.9086111
1993,delaware,oh,us,fireball,7200,2 hours,"Lights in localized semi-rural area, beams emitted, possible sound, possible contact, video tape",2008,40.2986111,-83.0680556
1993,pryor,mt,us,fireball,1800,20-30 minutes,"Floating Light, Like a Spotlight",2005,45.4297222,-108.5325
1994,pawnee,ok,us,delta,1200,20 min,It was triangle shape with white lights at each corner of it and a large red one in the middle.,1999,36.3377778,-96.8036111
1994,new york city,ny,us,disk,15,15 seconds,"a flying colorful disc above my car, near Erie.  ((NUFORC Note:  Possible hoax??  PD))",2007,40.7141667,-74.0063889
1994,chicopee,ma,us,other,300,5 minutes,"Chicopee State Park, Craft seemed to be shooting balls of light or breaking up",2005,42.1486111,-72.6083333
1994,santa barbara,ca,us,delta,3,3 seconds,Black triangle,2001,34.4208333,-119.6972222
1994,warsaw,mo,us,cylinder,600,10 minutes,Triangle shaped object hovering above the water.,2007,38.2430556,-93.3816667
1994,las vegas,nv,us,disk,5,5 seconds,Bright green object in flight allmost colided with my aircraft.,2002,36.175,-115.1363889
1994,fredericksburg,pa,us,disk,300,5minutes,"I was driving by on the road and seen this saucer , it was ON the ground near a house. I stopped down the road and got out to get a clo",2002,40.4436111,-76.4286111
1995,iowa city,ia,us,other,20,20 sec.,"Man witnesses 2 ""white"" aircraft rendezvous at high altitude, fly toward bizarre obj. approaching very fast.  Obj. ""sparkled.""",1999,41.6611111,-91.53
1995,lake oswego,or,us,other,5,5 sec.,Man reports brief sighting of peculiar white object in daytime sky.  (See later sighting on same day.),1999,45.4208333,-122.6694444
1995,lake oswego,or,us,other,90,90 sec.,"Man reports witnessing 2 ""diamond-shaped objects overhead. (Second sighting on same day.)",1999,45.4208333,-122.6694444
1995,ashland,ky,us,disk,300,less than 5 minutes,Disintegrating object.,2003,38.4783333,-82.6380556
1995,williamsburg,pa,us,cylinder,600,10 minutes,Low flying rectangular object with very bright lights on all sides.,2005,40.4619444,-78.2
1995,vacaville,ca,us,other,0,,"Young woman, several family members witness peculiar orange disc hovering over neighbor's house.  Within 100 ft. (est.).",1999,38.3566667,-121.9866667
1995,tinley park,il,us,other,20,20 seconds,"Sheild shaped craft spotted at outdoor concert with orange glow, moivng at high speed.",2003,41.5733333,-87.7844444
1995,wantagh,ny,us,delta,60,1 minute,"Triangle with three large, dim, amber lights flew rapidly overhead and rotated once.",2008,40.6836111,-73.5105556
1995,austin,tx,us,other,5400,90 min.,"Man reports wife went out to empty trash, disappears for 90 min., returns disoriented and acting strangely.",1999,30.2669444,-97.7427778
1995,piedmont,ca,us,other,0,,"Woman repts. ""big disc the size of a volleyball, very bright like a landing light, w/ a green tinge on top,"" flew over  house to N.",1999,37.8244444,-122.2305556
1995,dover,nh,us,delta,600,10 minutes,six light triangle in dover,2003,43.1977778,-70.8741667
1996,west houston,tx,us,other,30,30 seconds,Three bright orange-white lights moving in a V formation from northeast to Southwest The center light would change position front to re,1999,29.7630556,-95.3630556
1996,bainbridge,oh,us,delta,180,3 minutes,Low-flying triangular object,2005,39.2275,-83.2705556
1996,new york city,ny,us,disk,300,5 mintues,"Possible UFO Sighting, Manhattan, New York 1996",2008,40.7141667,-74.0063889
1996,cupertino,ca,us,disk,600,10 mins,"Metalic ball floating motionless in high winds over San Jose, CA.",2008,37.3230556,-122.0311111
1996,safford,az,us,disk,30,30 sec.,Antigravity flying sphere,2001,32.8338889,-109.7069444
1996,the woodlands,tx,us,fireball,180,2-3 minutes,2 orange fireballs moving across sky ~ crazy acrobatics,2011,30.1577778,-95.4891667
1997,bemidji,mn,us,delta,600,10 minutes,In october 1997 my dad and I seen 3 lights in the shape of a triangle tumbling over each other in Bemidji Minnesota.,2004,47.4736111,-94.88
1997,garland,tx,us,cylinder,40,40 seconds,I had just got off of work at 1:15 a.m. I was driving down to the Hypermart USA because it was the only store open 24 hrs. I notice thi,2001,32.9125,-96.6386111
1997,jefferson,ny,us,other,300,05 minutes,"Rural mountain area. Tree covered hill. 1860' MSL. I awoke to see a bright white light approx 1,500' so east of my camper. The circular",1999,42.4811111,-74.6108333
1997,charlotte,nc,us,cylinder,120,2 minutes,"Cigar shaped, silvery-white object @ 500-1,00' up, in a clear blue, cloudless sky.  Object was silent, immobile, and when I glanced dow",1999,35.2269444,-80.8433333
1997,green bay,wi,us,fireball,1200,15-20 minutes,Three red lights,2009,44.5191667,-88.0197222
1997,pelzer,sc,us,delta,180,3 minutes,"Large, black, triangular, object flew low and silent over South Carolina state prison yard.",2009,34.6422222,-82.4561111
1997,hyannis,ma,us,delta,60,1 minute,"WIFE AND I DROVE ONTO START OF OUR STREET, NOTICED TWO LIGHTS NOT USUALLY THERE.  STOPPED CAR, GOT OUT, SAW TWO CRAFTS.  NO NOISE AND H",1999,41.6527778,-70.2833333
1997,bourbonnais,il,us,delta,60,-1 min,"I was traveling home from visiting my dad in Carle Hospital on 113 heading towards Custer Park, IL. It was dark out I was in farm count",2005,41.1416667,-87.875
1997,oakland,or,us,fireball,60,1 minute,"High altitude light turned, dropped several Thousand feet, turned and disappeared!",1998,43.4222222,-123.2972222
1997,martinsville,va,us,other,300,5 mins,Yellow/Orange lighted object moving from NE to SW. Very bright toy top shape with no sound. About the size of a penny held at arm reach,1999,36.6913889,-79.8727778
1997,summerville,sc,us,delta,1200,20 min,"Triangular shape with lights in a V, no sound, very slow moving.",2006,33.0183333,-80.1758333
1997,lakeland,fl,us,fireball,60,1 minute,"3 oval shaped reddish-orange lights flew over my house, heading directly south. The lights formed a perfect triangle, but flying severe",1999,28.0391667,-81.95
1998,logan,ut,us,delta,120,a few minutes,"We saw 5 triangular objects moving at high altitude to the south, circling each other like small birds.",1999,41.7355556,-111.8336111
1998,portland,or,us,fireball,5,5 sec,"GETTING OUT OF MY CAR TO WORK,I SAW A WIDE GREEN STREAK OF LIGHT IN THE SOUTHWEST SKY,FROM SKY TO GROUND...........",1998,45.5236111,-122.675
1998,st. paul,or,us,fireball,5,5 seconds,We own a farm here in St. Paul. We (my mother and I) had pulled off to the side of the road to check on some farm equipment we had in a,1998,45.2113889,-122.9755556
1998,nisqually,wa,us,disk,180,3 min.,burnt out disk  gets ride from trucker to air force base,2004,47.0566667,-122.7
1998,rio rancho,nm,us,fireball,120,2 min.,Sighted during the major meteor shower last year.,1999,35.2333333,-106.6638889
1998,bayfield,co,us,fireball,1800,30 minutes,Large light object in sky with lightning storm and huge beam of light from below in  southern Colorado,2001,37.2255556,-107.5975
1998,chicora,pa,us,disk,0,,"Doing my morning walk, road in front of my house, we lived in housing plan, as I started walking back, I felt something drawing me to l",2002,40.9480556,-79.7430556
1998,san francisco,ca,us,disk,420,6-7 minutes,Soccer Balls over SF,2012,37.775,-122.4183333
1998,elgin,il,us,disk,1200,20 minutes,"I can only say that I know what I saw,  I even took a digital picture of it.  1:30 in the afternoon,  clear blue sky,  an airplane head",1999,42.0372222,-88.2811111
1998,del mar,ca,us,fireball,4,4 seconds,Fireball streaked across the sky and fizzled out 5 miles inland,1999,32.9594444,-117.2644444
1998,la jolla,ca,us,fireball,7,six to seven seconds,"At dusk, an orange,white,pink,and voilet color fireball traveled totally horizontal west to east,not as fast as a shooting star,and the",1998,32.8472222,-117.2733333
1998,manchester,nh,us,disk,120,2min,hovering above city landfill.  beam of light from craft to ground.,1998,42.9955556,-71.4552778
1998,clarinda,ia,us,delta,60,60 seconds,silent and large UFO just above tree tops.,2009,40.7419444,-95.0380556
1998,ipava,il,us,delta,900,15 min,An object which resmbled car headlights in the sky was spotted to SW.  A discernable craft flew directly overhead and proceeded to disa,1998,40.3513889,-90.3244444
1998,moundsville,wv,us,delta,0,continous,"5 large objects observed, 4 of them flying in a rectangular motion. Perfect 90 degree banks at incredible speed!!!",2001,39.9202778,-80.7433333
1998,mosinee,wi,us,other,300,5 minutes,I was driving south on U.S. Hwy 51 and I saw a craft that didn't move for 5 or more minutes.  The craft also made no noise.,1998,44.7930556,-89.7030556
1999,san antonio,tx,us,fireball,30,30 seconds,Observed amber bright light decending for apx. 20 seconds.,1999,29.4238889,-98.4933333
1999,oak brook,il,us,fireball,60,i minute,"a green-blue light comes out and down out of a cloud, and goes back into the cloud",2002,41.8327778,-87.9288889
1999,portland,or,us,fireball,25,15-25 seconds,looking west the object appeared approx near the top of our atmosphere. It was huge! It at first just seemed to appear out of thin air.,1999,45.5236111,-122.675
1999,elyria,oh,us,delta,300,5or more minutes,"The front was shaped like a triangle, with two lights on the wing tips. Blueish-gray in color...Low rumbling sound, Moving very slow. ",1999,41.3683333,-82.1077778
1999,new york city,ny,us,other,5,5 seconds,"I witnessed a being in the middle of the day in Manhattan about six and a half feet, its face definately not human?",2001,40.7141667,-74.0063889
1999,norman,ok,us,cylinder,120,2 min,"Soundless cigar shaped object(s) transited South to North. Weather- clear, unlimited visibility, near 70 degrees F.",1999,35.2225,-97.4391667
1999,las vegas,nv,us,fireball,15,app. 15 seconds,A moving object which possibly changed speed and direction in an unorthodox manner,1999,36.175,-115.1363889
1999,miami,fl,us,other,25,25 sec.,Red and Green light in the sky.,1999,25.7738889,-80.1938889
1999,independence,mo,us,delta,15,15 seconds,Looked up an saw tiny points of light creating the shape of a Chevron.,1999,39.0911111,-94.4152778
2000,vaughn,wa,us,other,540,9:00 minutes,The lights changed colors and there was a strange noise.,2000,47.3444444,-122.7619444
2000,sturgis,mi,us,disk,600,9 to 10 min.,THE OBJECT WAS UP TO HIGH FOR DETAIL BUT WAS CIRCLE IN SHAPE AND WAS BRIGHT WHITE LIGHT,2001,41.7991667,-85.4191667
2000,madera,ca,us,fireball,120,2 minutes,A bright oval shaped light flying faster than anything I had ever seen before.,2013,36.9613889,-120.0597222
2000,stockton,ca,us,disk,180,2-3 minutes,Two strange bright objects at dusk in the central valley.,2002,37.9577778,-121.2897222
2000,chandler,az,us,cylinder,20,20 sec,tHIS IS A CORRECTION TO A REPORT THAT I MADE LAST WEEK.   WHEN WE SAW THE LIGHT MY WIFE AND NEIGHBOR WERE BEHIND ME AND THEY WSAW THE O,2000,33.3061111,-111.8405556
2000,belmont,ca,us,other,15,15 seconds,Faint starlike object  moving in space at high speed stopped and lined up with other 3 faint stars.,2000,37.5202778,-122.2747222
2000,prineville,or,us,other,3600,1 hour,"bright white light the size of a distant star that made eratic movements, and complete stops",2000,44.3,-120.8333333
2000,wheaton,md,us,delta,300,5 minutes,"UFO sighted in Wheaton, MD",2006,39.0397222,-77.0555556
2000,albuquerque,nm,us,delta,0,ongoing,TRIANGLE VERY LARGE THREE LIGHTS AT POINTS SHADOW BUT EVER FEW SECONDS YOU COULD SEE A FLASH FROM POINT TO POINT FACING TO THE NORTHEAT,2000,35.0844444,-106.6505556
2000,orange park,fl,us,other,10,10 seconds,"Two points of light darted across the sky side by side, crossed paths and continued out over the Florida Panhandle",2001,30.1658333,-81.7066667
2000,colorado springs,co,us,fireball,300,3 to 5 minutes,saw 4 lights going in what i thought was a clover formation,2000,38.8338889,-104.8208333
2000,maryville,mo,us,fireball,30,about-30sec,white disappearing lights,2000,40.3461111,-94.8722222
2000,jackson,tn,us,delta,120,appox. 2 mins,"Three glowing spheres under dark triangular shape, no sound",2001,35.6144444,-88.8138889
2000,jones beach,ny,us,delta,900,15 minutes,"2 objects over jones beach NY, sent Red beam then blue beam on our car.",2000,42.9047222,-76.3944444
1965,pittsburgh,pa,us,disk,120,2 minutes,Saucer observed about 500 feet up moving into clear blue sky and flying square corners.,2007,40.4405556,-79.9961111
1965,pittsburgh,pa,us,disk,60,1 minute,Low UFO sliding out of a cloud into clear blue sky.,2008,40.4405556,-79.9961111
1971,menands,ny,us,delta,180,3 minutes,"Large, black,  ""boomerang"" shaped object gliding silently overhead.",2006,42.6919444,-73.725
1973,birmingham,al,us,disk,900,10-15 minutes,Glowing Green UFO seen by myself (mom) and my 4 children very low over our car on a Friday night in Alabama in 1973.,1999,33.5205556,-86.8025
1976,emporia,ks,us,disk,300,5 minutes,Disc hoovers over train and seems to x-ray it.,2009,38.4038889,-96.1813889
1978,kannapolis,nc,us,disk,0,,A  close encounter!,2006,35.4872222,-80.6219444
1978,dyersburg,tn,us,delta,7200,2 hours,NW TN TRIANGLE.,2013,36.0344444,-89.3855556
1978,alpine,az,us,disk,7200,2 hours,"DURING A HUNTING TRIP IN THE MOUNTAINS,WE MADE CAMP AND LATE THAT NIGHT I SAW THE FOLLOWING. A BRIGHT LIGHT THAT CAME FROM THE SOUTHEAS",2013,33.8480556,-109.1425
1979,barnegat,nj,us,cylinder,900,15 min.,Iwitnessed one object moving east to west across Rt.539 4 mile north of Rt.72 near the Fire Tower. There were no cloud and the sky was,2005,39.7530556,-74.2233333
1982,pearlington,ms,us,fireball,20,20 seconds,While fishing on the east pearl river which seperates la./ms. north of i10 near stennis we saw a white round light just above the trees,2013,30.2463889,-89.6111111
1982,pearlington,ms,us,fireball,29,29 seconds,Round light which was observed going into space with moves and silence that we have never seen before.,2013,30.2463889,-89.6111111
1985,swansboro,nc,us,disk,300,23:45 - 23:50,My sister and I observed a disk for about 5 minutes hovering approximately 120 feet away.,2000,34.6875,-77.1194444
1994,schenectady,ny,us,other,120,a few minutes,I had just picked up my Daugther (2yrs old) from my Mother-in-Laws and was on my way home it was a clear cold crisp day with the leaves,2001,42.8141667,-73.94
1994,monticello,ky,us,delta,120,1-2 minutes,Triangular/chevron small object with fixed lights at corner--very fast moving.,2006,36.8297222,-84.8491667
1994,okeechobee,fl,us,disk,120,unknown - hours,close encounter of the fifth kind - detailed information was given via ELF wave and four books written with schematics/drawnings.,2014,27.2436111,-80.83
1995,pueblo,co,us,delta,10,10 sec.,"3 Triangular craft passed directly overhead.  They were flying in a ""V"" formation at low altitude. There was no sound. These objects we",1998,38.2544444,-104.6086111
1997,huntington beach,ca,us,disk,20,20 seconds,Sphere chased by Huntington Beach Helocopter,2005,33.6602778,-117.9983333
1997,kenner,la,us,disk,1260,1:21min,two disk like objects passed over me and my mother  objevts seemed to be a couple of thousand feet overhead,1998,29.9938889,-90.2416667
1997,chicago,il,us,fireball,300,5 minutes,"Me and my friend were driving back from a Cubs game and we saw a red light in the sky it was moving very fast, then stopped, went back",2002,41.85,-87.65
1997,franklin,nh,us,other,15,15 seconds,Round green ball-shaped object,2002,43.4441667,-71.6477778
1998,lincoln,ne,us,disk,11,11 sec,"3 Lights not as egg shaped but close, thumb nail. Flying in tryangle formation flew over for 7 seconds not to close but not far away. f",1998,40.8,-96.6666667
1998,murray,ut,us,fireball,300,5 min.,It was a red light in the north west sky. it rose very slowly for about three minetes and then droped down flashing red and white.To sl,1998,40.6669444,-111.8872222
1998,asheville,nc,us,fireball,1800,30min,A MOVING RED BALL OF LIGHT.,1999,35.6008333,-82.5541667
1998,asheville,nc,us,fireball,2400,40 min,"Red light moved slowly over Asheville, dogs acted is if they were in pain.",2006,35.6008333,-82.5541667
1999,missoula,mt,us,delta,60,1 minute,"Some of my friend and I were outside, smoking when something flew over us. It looked like an airplane at first, but it was to big, and",1999,46.8722222,-113.9930556
1999,albany,or,us,fireball,120,2min,Two fireballs in northwest sky,1999,44.6366667,-123.1047222
1999,miami,ok,us,disk,120,2 minutes,Flock of Silver Ovalish Shaped Disk flying quickly through the daytime sky.,2008,36.8744444,-94.8772222
1999,breezewood,pa,us,fireball,3600,1 hour,"3 balls of light were in the sky. They were in a triangle formation, I heard that it might have been one ship with three lights.",2000,39.9991667,-78.2388889
1999,scottsdale,az,us,cylinder,600,10 minutes,"I witnessed a extremely white bright cigar shaped light in the west/soutwestern sky, low on the horizon. It moved slowly from south to",1999,33.5091667,-111.8983333
1999,palominas,az,us,delta,600,10 minutes,"V shaped light pattern but craft was pyrymid shape and demention. Huge size of shopping mall made no sound, escorted by 1/2 hours worth",1999,31.3797222,-110.1177778
1999,port townsend,wa,us,delta,300,5 minutes,"3 satellites forming a perfect isosceles triangle shape, moving in complete unison from the NW to the SE and turning to the South.",1999,48.1172222,-122.7591667
1999,phoenix,az,us,fireball,600,10 minutes?,Phoenix police dept. helicopters (2) and crew observe orange fireball that circles their craft. Report at first denied by PPD then ackn,2000,33.4483333,-112.0733333
1999,tulsa,ok,us,other,30,30 seconds,"It was maybe 500ft above me, no lights, traveling VERY slow,  and completely silent.",2008,36.1538889,-95.9925
1999,little falls,mn,us,other,3600,1 hour,Two bright amber lights. About 300 to 500 feet up. One slightly lower.,1999,45.9763889,-94.3622222
2000,breckenridge,tx,us,other,300,5 minutes,"It was slow moving ,no lights and totally silent and BIG.",2004,32.7555556,-98.9019444
2000,mountain city,tn,us,disk,30,30 seconds,Broad Daylight Flying Saucer,2001,36.4744444,-81.805
2000,new haven,wv,us,disk,6,6 seconds,Disk shaped object sited over Mason County W.V. traveling at high rate of speed.,2000,38.9863889,-81.9736111
2000,belmont,vt,us,cylinder,600,10 minutes,"The cigar shaped craft was hovering in the southwestern sky fairly close to the ground.  There were lights on it.  There was a bright """,2000,43.4155556,-72.8227778
2000,gilbert,az,us,disk,1080,app 18 min,Bubba's Back!,2000,33.3527778,-111.7883333
2000,gilbert,az,us,other,900,15 minutes,"Bright red ball of light moving an easterly direction over Gilbert, AZ",2000,33.3527778,-111.7883333
2000,tulsa,ok,us,fireball,60,approx 1 minute,Witnessed a pink fireball making small circles in the sky around 71st ST & HWY 169. At first glance it appeared to be fireworks but the,2000,36.1538889,-95.9925
2000,buckeye,az,us,fireball,300,5 mins,"i saw ""bubba "" in buckeye az  very red and very bright",2002,33.3702778,-112.5830556
1966,mission,tx,us,disk,5,5 seconds,"I was driving to the hospital after work to visit my dad.   Suddenly, about 3 blocks ahead of me a disc lite object appeared.  It arriv",2014,26.2155556,-98.325
1969,millington,tn,us,other,259200,72 hours,"Star-like, 8-point inverted V-shape, changed to V-shape, executed 1-second shift  from directly South to directly West.",2002,35.3413889,-89.8972222
1969,memphis,tn,us,other,3600,1 hour,One object joining 9 others to complete a triangular formation.,2003,35.1494444,-90.0488889
1971,bristol,ct,us,disk,600,10min.,"i was just a baby up at fallmount,past central high school,wolcott st..i was told by my family dad,mom and 4 brother that when i was ju",2007,41.6716667,-72.9497222
1973,weldon,nc,us,disk,300,5 minutes,Me and my brother was coming home from a friends house and we saw a red flashing light what liked to be over a friends house. After a f,2014,36.4269444,-77.5958333
1990,rising sun,md,us,disk,600,10 minutes,These were four brightly luminous objects observed in the broad daylight.  They were lined up in a row-vertically.  They were all spher,1999,39.6977778,-76.0630556
1994,farmington,mo,us,cylinder,120,2 min,I spotted what I thought was a bright landing light of a larger than usual aircraft for our airport.,1999,37.7808333,-90.4216667
1995,crescent city,ca,us,other,600,10 min.,"Woman goes outside to retrieve paper, sees ""some lights"" hovering above ocean.  White lights turn red, begin zigzagging, stopped.",1999,41.7561111,-124.2005556
1995,new york city,ny,us,fireball,60,1 minute,"Late one evening, on my way home from work, I ran into a few old friends. We started talking about the good old days and hours passed w",2003,40.7141667,-74.0063889
1995,tacoma,wa,us,other,180,3 min.,"Woman repts. 5-6 ""rocket ship-shaped things, w/sparks flying out back end,"" flying down vert.out of the night sky. Good rept.",1999,47.2530556,-122.4430556
1996,reno,nv,us,delta,2400,40 min.,"At 3:19 am, bright light seen outside window and then one small tugboat triangular shaped aircraft seen over the house and then both oc",1998,39.5297222,-119.8127778
1996,gainesville,fl,us,disk,2400,hour,ALIEN CONTACT THROUGH DREAMS,1999,29.6513889,-82.325
1996,astoria,or,us,disk,30,30 seconds,large metallic object crashed in woods in astoria oregon.,2002,46.1880556,-123.83
1996,odessa,tx,us,delta,600,10 minutes,We saw a huge diamond shaped object hovering over us.,2000,31.8455556,-102.3672222
1996,encino,ca,us,delta,3,3 seconds,"very large V shaped craft flys from horizon to horizon in 3 seconds, very low and silent (Los Angeles)",2007,34.1591667,-118.5002778
1997,buffalo,ny,us,other,0,4500,Please Not Post,1999,42.8863889,-78.8786111
1997,reno,nv,us,other,3600,60min.,We saw several objects performing naneuvers that not possible for present day aircraft to accomplish. This sighting is indescribable th,1999,39.5297222,-119.8127778
1997,hollister,ca,us,fireball,120,1-2 min.,"I was walking on a county road looking at the stars as I often do When I noticed a star becoming brighter, Then to my amazement it move",1999,36.8525,-121.4005556
1999,santa fe,nm,us,disk,25,25 seconds,"while driving east something unusuall grabed my sight to the sky, there was 3 objects (plus 2 fighters afar)i kept looking at them and",1999,35.6869444,-105.9372222
1999,florence,ky,us,delta,600,10 min.,I 75 going south.  Triangle shape.  White light on each corner.  Not moving... no sound.,1999,38.9988889,-84.6266667
1999,pittsburgh,pa,us,other,300,approx 5 min.,Stange Craft chased away by fighters.,2002,40.4405556,-79.9961111
1999,boscobel,wi,us,fireball,300,5 minutes,A red light making smoke and stopped making smoke going east.,2003,43.1344444,-90.7052778
1999,lansing,mi,us,disk,600,10 minutes,"Seen something that was not a helicopter or a plane , too low, too silent, no sound, the damn thing hovered.  Planes don't do that.",1999,42.7325,-84.5555556
2000,forest hills,ny,us,disk,60,about 60 sec,Illuminated green ball of light hovers in the sky,2012,40.7161111,-73.8505556
2000,tulsa,ok,us,fireball,60,maybe 1 min.,Fireball sighting early morning 10/13/00,2000,36.1538889,-95.9925
2000,newton,ks,us,fireball,90,60-90 seconds,These objects appeared to be meteorites of a very large magnitude.,2000,38.0466667,-97.3447222
2000,wichita,ks,us,other,90,0.0625,"Did not see a craft, just a bursting brilliant meteor shower, several chunks of debris came from it.  This was a natural phenomenon.  L",2000,37.6922222,-97.3372222
2000,knoxville,tn,us,cylinder,120,2 minutes,"Two metalllic cylinders and an unusual ""plane"" sighted flying from SW to ENE and ENE to SW in Knoxville.",2000,35.9605556,-83.9208333
2000,louisville,ky,us,delta,600,10 minutes,"My encounter with a UFO was very horrifying at the time, but now it I realize how truly amazing the experience was.",2001,38.2541667,-85.7594444
2000,wichita,ks,us,other,0,?,"A VERY LONG,BRIGHT STREAK ZOOMS ACROSS OUR SKIES. IT'S NOT A FIREBALL!",2000,37.6922222,-97.3372222
2000,clyde,tx,us,cylinder,60,around 1 min.,The Book of Yahweh,2000,32.4058333,-99.4933333
2000,jenks,ok,us,fireball,30,30 seconds,A fireball with a bright glowing tail.,2000,36.0227778,-95.9680556
2000,orangeville,pa,us,other,600,10 min,Brilliant  shimmering gold object sighted 1 hr after sunset,2000,41.0780556,-76.4147222
2000,amarillo,tx,us,fireball,120,2 min,it blew up and shattered into several different parts had jet stream behind it and was bright blue and white and traveled as far as i c,2000,35.2219444,-101.8308333
2000,baird,tx,us,fireball,60,30 sec. to 1 min.,"I am a 34 year old attorney with two children.  My wife and I were traveling from Dallas to Abilene, heading West on Interstate 20.  It",2000,32.3938889,-99.3938889
2000,elk city,ok,us,fireball,600,10 min,Fireball's over Elk City,2000,35.4119444,-99.4038889
2000,eugene,or,us,fireball,300,3-5 min.,Lights over the Oregon Coastal Mountains.,2000,44.0522222,-123.0855556
2000,miami,fl,us,delta,8,5-8 sec,"Hazy, chevron or crescent shaped object moving rapidly and silently North to South.",2000,25.7738889,-80.1938889
2000,orwigsburg,pa,us,fireball,5,5 seconds,"while at a Blue Mt. footbal game i witnessed 2 yellowish orange lights moving upward very quickly, one that zigzagged upwards/high spee",2000,40.6547222,-76.1011111
2000,portland,or,us,fireball,3,0.002083333,4 white lights initially stationary suddenly merged into one light and then when out.,2000,45.5236111,-122.675
1965,ponca city,ok,us,other,15,brief-15sec,"SUDDENLY A BRILLIANT WHITE LIGHT LIT UP THE ENTIRE COUNTRY SIDE.  BRIGHTER THAN THE SUN. I GUESS AROUND A 1,000 FEET ABOVE GROUND, COUL",1999,36.7069444,-97.0852778
1974,fulton,mo,us,delta,60,1 minutes,I saw a golden orange diamond shaped object traveling south in the sky in mid october 1974 near Fulton MO,2004,38.8466667,-91.9477778
1974,oran,mo,us,other,15,15 seconds,"Saw triangle shaped craft, light on each corner, low overhead, few hundred feet above.  As craft went by saw light on top. Soft noise l",2010,37.085,-89.6552778
1978,atlanta,ga,us,disk,900,15 minutes,A saucer shaped ship was seen from about 50 yards away.  It hovered.,2005,33.7488889,-84.3880556
1986,san jose,ca,us,fireball,120,2 minutes,"Red, green and gold light amazes multiple witnesses over Santa Clara Valley",2003,37.3394444,-121.8938889
1990,reidsville,ga,us,disk,240,4 minutes,"The craft was oval shaped, with lights rotating in the middle of it and a green alien with bulging black eyes.",2008,32.0866667,-82.1180556
1994,goodlettsville,tn,us,other,120,2 minutes,"I saw what looked like a large orange fireball hovering, it then shrunk to the size and color of a star.",2002,36.3230556,-86.7133333
1994,citra,fl,us,disk,120,2 min,We saw a perfect  Spherical ball of light in the sky that  wasn't the moon.,2010,29.4116667,-82.11
1994,cornersville,tn,us,disk,1200,5 to 20 minutes,"Bright, round, white light flies over Coleman RD at night. 4 people saw that I know of. It was moving slow.",2003,35.3613889,-86.8397222
1995,des moines,wa,us,other,120,2 min.,"Man repts.""long silver obj., seemed to roll, alternated from silver to gray.""  Had a ""red glow"" near tail, released gold/yellow sparks.",1999,47.4019444,-122.3230556
1995,belmont,mi,us,delta,1800,30 minutes,"One large triangle craft, 20 small red, clear, and green lighted craft",2004,43.0755556,-85.6091667
1995,dayton,wa,us,other,5,5 sec.,"Several young people witness ""lime-green, glowing sphere"" descend from W to E in N sky, disappear below hor.  Other repts.",1999,46.3238889,-117.9713889
1995,madison,wi,us,other,360,6 min.,"Co. emerg. dispatch relays sighting of ""pointed, oval obj."" by family of 4.  When bright light dimmed, ""spikes sticking out"" visible.",1999,43.0730556,-89.4011111
1995,sandpoint,id,us,other,20,20 sec.,"Man calls to report multiple witnesses to ""green fireball"" over WA, ID, MT.  Very strange object!",1999,48.2766667,-116.5522222
1995,spokane,wa,us,other,20,20 sec.,Empl. of KREM-TV calls regarding multiple sightings of bright green object w/ orange tail reported by multiple callers.,1999,47.6588889,-117.425
1995,troy,mt,us,other,2,2 sec.,"Two women witness green obj, ""size of full moon,"" fly directly toward them, descend from SE.  Illuminated trees on top of mtn..",1999,48.4633333,-115.8886111
1995,abilene,ks,us,other,0,,"Man sees  very large ""three fingers wide"" obj move slowly across sky from N to SW. Had 4 lights in triangular pattern. Faint hum.",2001,38.9172222,-97.2136111
1996,gainesville,fl,us,disk,1800,30 min,"My sister and I  both had a dream that a ufo was coming to Gainesville. They showed us around the ship,and the greys told us that they",1999,29.6513889,-82.325
1997,syracuse,ny,us,other,30,30 sec. max,"4 Military planes fly past flying rod,  and information blackout still ocurring.",2001,43.0480556,-76.1477778
1997,san diego,ca,us,fireball,0,ongoing,I walked outside and there were a few stars that were twinkling. Which were in the configuration of ORION. I called my boyfriend outsid,1999,32.7152778,-117.1563889
1998,otis,or,us,other,3,3 seconds,"From WSW to ENE, crescent shaped object,blue,white in color. Slower than normal meteor speed.",1998,45.0244444,-123.9452778
1998,overton,nv,us,fireball,10,10 seconds,"Approx. 7:55PM on 10/14/98 while travelling North-bound from Overton, NV. I witnessed what appeared to be a ""falling star"" directly Nor",1998,36.5433333,-114.4461111
1998,tucson,az,us,disk,120,2 min.,"At approx. 10:00 Pm, we were sitting on the porch off an upstairs bedroom facing the eastern sky.  I was standing looking at the stars",1998,32.2216667,-110.9258333
1999,prescott,az,us,fireball,2700,45 min,Orange lights,1999,34.54,-112.4677778
1999,yonkers,ny,us,fireball,300,5 minutes,I was watching a star like object moving very slowly,1999,40.9311111,-73.8991667
1999,el paso,tx,us,delta,1200,20 minutes,I WENT TO THE BACK YARD WITH THE DOG AND LOOKED AT THE MOON AS I WAS COMING BACK TOWARD THE HOUSE. THE MOON WAS IN THE SSW OF THE SKY A,1999,31.7586111,-106.4863889
1999,mead,wa,us,fireball,3,3 seconds,I just let my dog out and look up and saw a blue light. I assume it was a shooting star however: It seemed to low and slow. I was looki,1999,47.7675,-117.3538889
1999,warrensville,nc,us,disk,1350,0.9375,husband saw a colored flash of light that stoped in the sky.we looked out and saw 1 just latter it returned with 2 others which changed,1999,36.4605556,-81.5191667
1999,nashville,tn,us,fireball,660,11 minutes,I saw a light flash like a plane out in my back yard but it didn't flash again so it caught my attention. Then it flashed again (white),1999,36.1658333,-86.7844444
1999,raymond,nh,us,delta,900,15 minutes,"ITMOVED VERY SLOW,FLASHED BRIGHT PINK LIGHT,AND NO NOISE.",2001,43.0361111,-71.1838889
2000,salinas,ca,us,other,120,2 min,Object with huge light and middle of the light pink smoke,2001,36.6777778,-121.6544444
2000,escondido,ca,us,other,2700,over 45 mins,Object over North San Diego County with flashing colored lights for ove an hour.,2000,33.1191667,-117.0855556
2000,breezewood,pa,us,cylinder,120,2 minutes,Chemtrails produce UFO,2000,39.9991667,-78.2388889
2000,mechanicsville,va,us,disk,15,15 seconds,While lying on my back waiting for the oil to drain out of my car I spotted a small white/silver circular object traveling at a high ra,2000,37.6086111,-77.3736111
2000,sarasota,fl,us,other,180,3 minutes,Small black object following airliner within its contrail,2000,27.3361111,-82.5308333
2000,gonzales,la,us,cylinder,30,30 seconds,"Gigantic ufo near Gonzales, LA",2000,30.2383333,-90.92
2000,denver,co,us,other,360,6 minutes,object behind clouds that looked like full moon but was not. moved to always be behind clouds for six minutes,2000,39.7391667,-104.9841667
1936,eklutna,ak,us,cylinder,180,3 minutes.,Two men approached by a cigar-shaped object in the night sky.,2001,61.4580556,-149.3622222
1943,owensboro,ky,us,cylinder,1800,30 mins.,Low-flying silver object seen on a clear day near mid-day.,2012,37.7741667,-87.1133333
1949,baltimore,md,us,cylinder,180,2-3 minutes,"It was around 8:PM and I was walking home,it was a full moon but something made me lookup, there was no noise, but an object came in fr",2008,39.2902778,-76.6125
1951,jacksonville,fl,us,disk,0,unknown,Sisters observe dark disc in sky over city park; sight landed saucer opening as they hide.,2005,30.3319444,-81.6558333
1952,richland,wa,us,disk,5,5 seconds,"Night sighting of seven large luminous UFOs flying in ""V"" formation",2010,46.2858333,-119.2833333
1953,mauriceville,tx,us,disk,300,5 min.,My father was a WWW1 Vet. and loved hunting. The year was round 1953.We lived in a town of 300 people in southeast tex. Dad would take,2002,30.2033333,-93.8661111
1954,blanco,tx,us,other,300,3-5 mins,"We saw a silver football, motionless in the sky; stopped , looked about 3-5 mins. and resumed the trip.",2004,30.0977778,-98.4211111
1954,manistee,mi,us,disk,8,8 seconds,"Saucer shaped, moved north to south directly above the street, no sound, moon was to the east",2008,44.2444444,-86.3241667
1955,rhinebeck,ny,us,fireball,2400,40 minutes,"This very distant star-like point of light came very slowly up over the treeline from the Southwest, stopped.",2010,41.9266667,-73.9130556
1957,england,ar,us,disk,0,unknown,Unexplained object seen on a clear fall night by a reputable person. 500 Lights On Object0: Yes,2007,34.5441667,-91.9688889
1957,new york city,ny,us,other,10800,2x3 hrs,tall unidentified being enters home - N.Y.C. 1957,2003,40.7141667,-74.0063889
1957,houston,tx,us,fireball,3,3 seconds,"5 to 6"" diameter light, extremely fast, silent, made an impossible inside 45 degree turn, and sped away horizontally.",2000,29.7630556,-95.3630556
1957,commerce city,co,us,fireball,600,10 min.,A lot of methane gas in area,2002,39.8083333,-104.9333333
1959,marysville,wa,us,other,75,0.052083333,UFO  Over  Golf Course,2007,48.0519444,-122.1758333
1961,indialantic,fl,us,disk,120,2 minutes,Unbelievably Close to the Ground Surface.,2012,28.0891667,-80.5658333
1962,chicago,il,us,other,10,10sec,SITTING IN AVALON PARK ON A FALL NIGHT AT APP.1030 PM I SAW A METALIC OBJECT TRAVELING FROM E TO W I DIDNT GIVE IT MUCH THOUGHT BUT IT,2001,41.85,-87.65
1964,columbus,oh,us,cylinder,600,10min,Child remembers seeing object over 40 years,2005,39.9611111,-82.9988889
1965,new rochelle,ny,us,disk,2,:02,knew they came and went all stoped  talked to my brain or?  ((NUFORC Note:  Report from retiree.  PD)),2011,40.9113889,-73.7827778
1965,tabor,ia,us,disk,2700,45 min.s,"Craft hovers noiselessly over witnesses in 1965, in Southwest Iowa, is photographed by 2 photographers, photos stolen later.",2004,40.8983333,-95.6711111
1966,boca raton,fl,us,disk,21600,6 hours,"SAW BRIGHT LITE.DROVE CLOSER,STOPPED WHEN NEXT TO IT.500 YARDS.GOT OUT OF CAR WALKED TOWARD LIGHT.NEXT THING 5 HOURS LATTER",1999,26.3583333,-80.0833333
1966,martinsville,in,us,disk,60,1 minute,Craft hovered about 20 feet above barn. Lights in horizontal orientation for about 30 seconds and then darted away. Others saw.,2003,39.4277778,-86.4283333
1966,running springs,ca,us,disk,1200,20 min,Around 7 pm on a tues in oct 1966 on my way home from work   while driving up the rim of the world high way or highway 18 from skyfores,2000,34.2077778,-117.1083333
1966,ukiah,or,us,disk,1200,20 minutes,"Orange oval 40 ft in diameter, twenty ft off the ground, appoxumate 100 ft from me.",2013,45.1341667,-118.9313889
1966,utica,ny,us,delta,180,3minutes,"i and a friend were coming home one cold fall evening outside of Hugh R. Jones Elem. School . There was a triangle of a red, green, whi",2003,43.1008333,-75.2330556
1966,fremont,ca,us,other,0,varies,First UFO sightings as a teenager in the 1960's: three events,2011,37.5483333,-121.9875
1967,birmingham,al,us,disk,300,five minutes,description of a spaceship spotted over Birmingham Alabama in 1967.,2008,33.5205556,-86.8025
1967,hampstead,nc,us,disk,300,5 minutes,Hampstead North Carolina disk 1967,2012,34.3675,-77.7108333
1967,north hollywood,ca,us,fireball,900,15+ minutes,A fireball over the San Fernando Valley in 1967,2003,34.1722222,-118.3780556
1967,saugus,ca,us,fireball,180,3 minutes,"oct. 1967 late night, I was a high school student living in the boring town of Saugus, California, the nearest town was Newhaul, and th",2009,34.4113889,-118.5391667
1968,hastings,mn,us,delta,120,2 minutes,Perfect semi circle vapor trail left as soundless UFO makes a turn-around overhead.,2000,44.7433333,-92.8522222
1968,crystal lake,il,us,cylinder,1800,30 minutes,Cigar shaped vehicle hovering over farm field.,2010,42.2411111,-88.3161111
1968,bancroft,wi,us,fireball,120,about 1 and 1/2 to 2 minu,"Two, non-blinking white lights perform a high speed, 75-degree ascent.",2001,44.3097222,-89.5136111
1969,sharon,ct,us,disk,120,1-2 minutes,"NO NOISE, NO AIR MOVEMENT, NO HEAT,LIGHTS UNDERSIDE, HOVERED,",2010,41.8791667,-73.4772222
1969,pearl,ms,us,cylinder,1200,15-20 minutes,Long overdue report of UFO witnessed at a close range--years ago,2004,32.2744444,-90.1319444
1969,portland,or,us,cylinder,0,3/1/2002,The cigar shaped crafts unusual attitude is something I have never seen repeated with any modern aircraft past or present.,2008,45.5236111,-122.675
1969,wilmington,de,us,disk,60,1 minute,"Moon sized object ""grew"" to fill entire sky, then disappeared",2011,39.7458333,-75.5469444
1969,hurst,tx,us,disk,60,1 minute,the light that came as i called it,2002,32.8233333,-97.1702778
1969,miami,fl,us,other,120,minutes,OCTOBER 1969 UFO SIGHTING BY ENTIRE FAMILY,2011,25.7738889,-80.1938889
1969,exeter,nh,us,cylinder,1800,30 min,I was returning from the first Vietnam Moratorium (that is how I fix the date accurately) in Boston with some friends in an old VW bus.,2004,42.9813889,-70.9483333
1969,alpine,az,us,disk,300,5 mins,"Fall, clear, full visual disc sighting unbelievable air manuevers ,speed , brightness.",2004,33.8480556,-109.1425
1970,westland,mi,us,other,20,20 seconds,"Early 1970's, object going around the sun.",2002,42.3241667,-83.4002778
1971,bremerton,wa,us,disk,600,10 minutes,I was walking into my home one day at dusk and as i looked up saw these strange objects in the sky. I ran in and got my camera and took,2001,47.5675,-122.6313889
1971,litchfield,ct,us,disk,360,6min aprox,Mothership over Litchfield CT,2003,41.7472222,-73.1891667
1971,tinley park,il,us,disk,900,10-15 min,Saw a disc shaped craft with 3 lights,1998,41.5733333,-87.7844444
1971,lago vista,tx,us,other,1800,30 minutes,"went outside & in night sky looking east{est.} saw 15 to 25 objects looked like stars appeared same distance as stars, but brighter tha",1999,30.46,-97.9880556
1973,spokane,wa,us,disk,900,15 minutes,We don't have craft that can fly this fast and make right turns at several thousand miles per hour,2008,47.6588889,-117.425
1973,collierville,tn,us,disk,300,5 minutes,Group of about 20 sees UFO on clear day for about 5 minutes in 1973 in SW TENN.,2006,35.0419444,-89.6644444
1973,chazy,ny,us,fireball,300,5 minutes,"Exact location: 44 deg 52' 33.74"" North, 73 deg 28' 52.99"", thanks to GPS and Google Earth (didn't have either back then). Macadam Road",2006,44.8897222,-73.4363889
1973,englewood,tn,us,disk,120,2 min.,They talked to me as a child.,2003,35.4244444,-84.4875
1973,houston,tx,us,disk,2700,45 minutes,"UFO hovers over Houston TX, fall 1973.",2012,29.7630556,-95.3630556
1973,millington,tn,us,disk,1800,20-30 minutes,3 Saucer shaped UFO's over Naval Air Station.  F-4 Phantom Scrambled.,2013,35.3413889,-89.8972222
1974,oak creek,co,us,cylinder,0,20,follow-up information concerning flying pencil shaped object; original posting date 02/02/04,2007,40.275,-106.9577778
1974,memphis,tn,us,cylinder,1200,probably 15-20min,Cigar in Memphis 1974.,2000,35.1494444,-90.0488889
1974,bath,oh,us,disk,2700,45 min,Strange animal sounds and what appeared to be a plane crashing before seeing huge craft hovering over tree across from our home. It,2006,41.1888889,-81.6363889
1974,san francisco,ca,us,fireball,180,3 minutes,A pulsing light that ascended at 90 degrees,2005,37.775,-122.4183333
1974,la junta,co,us,other,20,20 seconds,we saw a glowing green pencil shaped object going from south to north.  it moved out from behind one hill only to disappear behind anot,2004,37.985,-103.5433333
1975,rockville,md,us,disk,7200,2 hours at least,"Floating abduction out of bed into a silver saucer; US military human beings on board, some kind of head surgery performed.",2012,39.0838889,-77.1530556
1975,rockville,md,us,disk,7200,1-2 hours,Abduction middle of night encounter human atired in US Military Uniforms (Airforce) experience some type of Brain Surgery!,2000,39.0838889,-77.1530556
1975,killeen,tx,us,other,240,3-4 min.,"Odd occurance over Ft. Hood, Texas",2004,31.1169444,-97.7275
1975,batesville,ms,us,disk,600,10 min,Shiny Silver Sphere seen for about 10 minutes in rural North Mississippi circa 1975,2008,34.3113889,-89.9441667
1975,marianna,fl,us,disk,300,5 minutes,Flying Disk seen in Fl Panhandle,2003,30.7741667,-85.2269444
1975,marion,ks,us,fireball,2,2 seconds,We saw a green object zoom across the sky going at least several thousand mile per hour.,2008,38.3483333,-97.0169444
1975,nesconset,ny,us,disk,180,3 minutes,"Large quiet craft,  moving at a very low altitude, heading east over Suffolk County, New York.",2008,40.8519444,-73.1544444
1975,williston,nd,us,disk,300,5 minutes,Missing Time,2005,48.1333333,-103.6333333
1975,monroe,ny,us,disk,60,1 minute,Flying saucer lifts off from field without a sound or trace.,2011,41.3305556,-74.1872222
1975,swannanoa,nc,us,other,900,15 minutes,Mother and children witness dome-shaped object with lights ascending from the ground and hovering overhead,2001,35.5977778,-82.4
1975,ryegate,mt,us,disk,3600,1 hour,"10/15/75. Round shape, extremely bright white light, took off (up) when I told it to ""come get me"".",2003,46.2972222,-109.2580556
1975,collinsville,al,us,delta,900,15 minutes,It was like something out of star wars,2003,34.2638889,-85.8605556
1975,greenwich,ct,us,fireball,0,not sure,It was a living thing.,2014,41.0263889,-73.6288889
1976,mineral king,ca,us,disk,28800,8 hours,"Two people view UFO  in Mineral King National Park , California . Investigation by air traffic controller .",2007,36.4508333,-118.5938889
1976,rochester,ny,us,other,10,10 seconds,Flashing red light appeared a foot above my car then sped away at incredible speed.,2003,43.1547222,-77.6158333
1976,eveleth,mn,us,fireball,900,10-15 minutes,Lights above Eveleth Mn in mid 70's,2003,47.4625,-92.5397222
1976,almena,wi,us,other,14400,4 hrs,Electrical failure of my reliable vehicle and some missing time.,2003,45.4169444,-92.0327778
1977,biloxi,ms,us,delta,60,< 1 min,Silent black triangular object flying at low level near Kessler AFB.,2009,30.3958333,-88.8852778
1977,orlando,fl,us,disk,60,i minute,we were camping in a friends  yard   fairly dark night as I recall . we saw 5 disk shapes flying in a v formation  the had a greenish w,2005,28.5380556,-81.3794444
1977,kennewick,wa,us,fireball,300,5 minutes,Huge circular orbs of flaming red light flew above the river right in front of me one night while I was camping.,2000,46.2113889,-119.1361111
1978,des plaines,il,us,disk,30,30 sec,Sighting in Illinois,2005,42.0333333,-87.8833333
1978,coeur d'alene,id,us,disk,10,10 seconds,Object raised vertically from lake and zips off horizontally like a lightning bolt.,2008,47.6777778,-116.7794444
1978,cherokee,nc,us,fireball,120,2 min.,Unknown white orb followed by approxmately 4 known objects,2002,35.4741667,-83.315
1978,candia,nh,us,disk,1200,15- 20 mon,Very large object seen in mid October 1978,2007,43.0777778,-71.2772222
1978,greenwich,ct,us,disk,900,15 minuts,((HOAX??))  had no control on tv. ash tray killd itself. the obkect was one big light.,2009,41.0263889,-73.6288889
1978,redondo beach,ca,us,other,0,,phx lights and reproductive organs missing,2003,33.8491667,-118.3875
1979,ellwood city,pa,us,other,900,15min,What ever it was it knew I was their,2007,40.8616667,-80.2866667
1979,bemidji,mn,us,other,1500,25 minutes,UFO drone watching a football game.,2012,47.4736111,-94.88
1979,gig harbor,wa,us,disk,600,10 minutes,Gig Harbor visitors and subsequent regression,2011,47.3294444,-122.5788889
1980,columbus,oh,us,fireball,900,10 - 15 minutes,"12-15 white fireballs traveling north to south ashing off as they flew by, the episode lasted 10-15 minutes over rural Columbus, OH.",2004,39.9611111,-82.9988889
1980,guntersville,al,us,delta,10,10 seconds,The date and time is not exact.  I was the shift supervisor at a chemical plant located on the banks of the Tennessee River.  Mountains,2009,34.3580556,-86.2947222
1980,avon,ct,us,disk,60,1 minute,A huge lit-up craft various colors of lights at tree top level traveling at a very slow speed (10 mph) over our heads .,2003,41.8097222,-72.8311111
1980,denham springs,la,us,cylinder,360,6 minutes,Flying object observed,2012,30.4866667,-90.9561111
1980,boonville,ca,us,disk,300,5 minutes,"digital rendering of sighting linked to 10/1980 ""Boonville, Ca. 10/1980: just after dark, two orange glowing spheres, 200 feet from gro",2005,39.0091667,-123.365
1980,jonesport,me,us,disk,300,hour or two,green gas sorta cloud very slow south to movement started from horison not much to say about it but it was witness at the same time by,2002,44.5327778,-67.5988889
1980,boonville,ca,us,disk,300,5 minutes,"Boonville, Ca.  10/1980:  just after dark, two orange glowing spheres, 200 feet from ground,  15 ft diam., 40 ft apart, 10 mph",2001,39.0091667,-123.365
1981,beaverton,or,us,cylinder,10,10 sec,"DAYTIME SIGHTING long, black, no features, like a pencil, no sound. no lights.",2002,45.4872222,-122.8025
1981,san jose,ca,us,disk,420,7 minutes,"Town and Country Shopping Center, dic shaped craft at about 20feet above the ground...around 4:30PM on a Sunday.",2008,37.3394444,-121.8938889
1982,van nuys,ca,us,disk,1200,20 min,"The space craft was flying at a 45 degree angle, approximatly a mile high, running parallel to Van Nuy Blvd on a clear day.",1999,34.1866667,-118.4480556
1982,lake city,fl,us,other,900,15 mins,Light beamed over top and front of car,2003,30.1894444,-82.6394444
1982,smithfield,ri,us,disk,60,1 min,"lights were flashing and I thought to myself  ""there are no towers here"".",2005,41.9219444,-71.55
1982,barton,vt,us,cylinder,1200,20 minutes,Observed very large lighted object moving and then  hovering  above a hay  field.,2003,44.7480556,-72.1766667
1982,north hudson,ny,us,disk,120,1-2 minutes,Full View of structure,2004,43.9525,-73.7288889
1982,hampton,va,us,delta,9000,2hrs 30min,"BLACK BOOMERANG SHAPED, LARG E,NO SOUND,NOLIGHTS,TREE TOP LEVEL",2004,37.0297222,-76.3455556
1982,concord,oh,us,cylinder,0,unknown,"Large, low craft that slowly approached over top of the trees, then hovered for 20 minutes.",2014,39.0219444,-84.0802778
1982,omaha,ne,us,disk,120,2 minutes?,"The saucer was flying high, with no sound and several lights. It passed overhead.",2000,41.2586111,-95.9375
1982,chillicothe,oh,us,cylinder,0,unknown,It was very large several football fields in area. almost would appear to be the shape of a low rise office building compleat with wind,2006,39.3330556,-82.9825
1983,california valley,ca,us,disk,600,5-10 min,"Sighting, Hynek class CE_II California valley, Oct '83",2012,35.32,-120.0058333
1984,new castle,de,us,other,300,3-5 minutes,Oct 1984 at 8:15 am small translucent half dome shaped object,2011,39.6619444,-75.5666667
1984,quincy,ca,us,other,60,one minute,Object that was observered in daylight appeared silver color and had no wings and in  a few seconds disapeared.,2004,39.9369444,-120.9461111
1984,skowhegan,me,us,disk,600,5 to 10 min,I was working at a church cleaning the parking lot in the evening approx 7 pm. I looked up towards the sky and I could see and object c,2002,44.765,-69.7197222
1984,albuquerque,nm,us,disk,2700,45 minutes,"Disc close enough to almost touch no sound or air, no feet or legs cloaked until about 6' from it",2013,35.0844444,-106.6505556
1984,strafford,mo,us,disk,600,10 inutes,I was only about 8 or 9 years old.  I had spent the weekend w/ my father & step mom when they were getting ready to take me to my moms,2002,37.2683333,-93.1169444
1984,uvalde,tx,us,disk,900,5-15 minutes,I cant remember very well now but i think it happened on a thursday night...i needed school paper for the folowing day and i told my pa,2001,29.2094444,-99.7858333
1984,new boston,tx,us,disk,3600,1 hour,Controled flight. Extremely low altitude. Extremely slow speed. NO SOUND! Observed at close distances.,2004,33.4597222,-94.4152778
1985,san ramon,ca,us,disk,300,5 mins,In 1985 I saw a silver saucer directly over my house in California.,2011,37.78,-121.9769444
1985,cleveland,oh,us,delta,15,15 seconds,"Driving on rural road AM. Cant rember month but there was no leaves on trees.  I saw a ""kite shaped object"" about the size of a two sto",2002,41.4994444,-81.6955556
1985,hixson,tn,us,other,900,15 minutes?,My friend and I saw three orange-red circles in a linear fashion in the sky one evening which was not moving nor making any sound.,2006,35.1405556,-85.2327778
1985,hartford city,in,us,delta,600,10 minutes,Triangle crafts over Blackford Co.,2002,40.4511111,-85.37
1985,camden,sc,us,disk,600,5-10 minutes,Saucer shaped the length of a football field,2006,34.2463889,-80.6072222
1986,orangeburg,sc,us,cylinder,10800,2-3 hours,"Orangeburg, S.C. to Augusta, GA. - fall 1986 - lights following car - multiple witnessess.   Radio request for sighters",2010,33.4916667,-80.8558333
1986,salem,or,us,cylinder,1500,25 minutes,Very Close Encounter.,2002,44.9430556,-123.0338889
1986,pinson,al,us,disk,10,abt. 10 seconds,"Redish orange , traveling slowly and quietly!",2003,33.6888889,-86.6833333
1986,bellevue,wa,us,disk,10,1/2 hours,"The saucer hovered over us, it was huge, orange and silent.",2009,47.6105556,-122.1994444
1986,knoxville,tn,us,disk,1500,25 minuites,Object traveld along side my car for a mile a close range.,2003,35.9605556,-83.9208333
1986,petaluma,ca,us,disk,1800,30 minutes,"Saw darting object in the night sky, move fast, stop, move fast stop. Then it flew  low over my house and I heard the UFO.",2000,38.2325,-122.6355556
1986,ridgecrest,ca,us,disk,1200,20 minutes,"Saucer shaped UFO, lights, no sound, 20 minute observation",2003,35.6225,-117.67
1986,onyx,ca,us,fireball,4,4 seconds,"friend and i were walking home on a dark night. there was a storm building, the cloud were very low. they were touching the mountain to",2000,35.6902778,-118.2197222
1987,raleigh,nc,us,delta,120,2 minutes,"Huge triangle passes over oblivious, sleeping capital",2003,35.7719444,-78.6388889
1987,burnet,tx,us,disk,20,10-20 seconds,Silver saucer object hovering on hill,2005,30.7580556,-98.2280556
1987,bolingbrook,il,us,delta,300,5 minutes,"Thin black triangle, moving slowly over field in suburban Chicago.",2007,41.6986111,-88.0683333
1987,itta bena,ms,us,disk,300,5 min,I saw a UFO one fall night in the shape of a golden circle.,2002,33.495,-90.3197222
1987,osawatomie,ks,us,other,7200,2+ hours,Many colorful balls of light over Osawatomie to Canada,2013,38.4972222,-94.9502778
1987,yonkers,ny,us,cylinder,1800,30 minutes,Silent rectangular football field sized object fling at about 1000 feet with 6 groups of lights on bottom and across stern,2002,40.9311111,-73.8991667
1987,eastchester,ny,us,delta,180,2 -3  minutes,huge dark dimly lit Triangle  slowly passes over  Platform Tennis  Courts in Eastchester NY,2005,40.8883333,-73.8286111
1987,baker,mt,us,fireball,600,5 to 10 min,bright light came out from behind a cloud and split off into 6 smaller lights leaving at a high speed,2005,46.3669444,-104.2841667
1988,greers ferry,ar,us,disk,180,2-3 min.,"Three moon sized objects appeared in the form of lights and lite the intire lake up and I could see a mountain about 10 miles from me,j",2002,35.5769444,-92.1772222
1988,bremerton,wa,us,disk,1800,30 minutes,Circular craft approximately 500 feet in diameter clearly seen at approximately 1500 feet altitude.,2011,47.5675,-122.6313889
1988,tacoma,wa,us,disk,120,2 minutes,Disc follows fighter jets to air base,2011,47.2530556,-122.4430556
1988,pilot knob,mo,us,cylinder,900,about 15 minutes,"I did not actually see this myself, but my mother did. I was 10 years old in 1988 and I remember my mom running in the house saying she",2005,37.6211111,-90.6402778
1988,belle,mo,us,other,600,5/10 minutes,Lights on a huge craft slowly going overhead. (Official explanations unacceptable),1998,38.2858333,-91.7202778
1988,loveland,co,us,delta,300,5 min,"Boomerang craft, silent, no lights, walking speed",2002,40.3977778,-105.0744444
1988,odessa,tx,us,disk,120,2 min,Driving at night on loop saw circular blinking lights.,1999,31.8455556,-102.3672222
1988,big spring,tx,us,other,300,5 min,Looking out at the night sky I caught out of my peripheral vision a streaking pastel green shooting star.,2001,32.2502778,-101.4783333
1989,hampton,va,us,cylinder,300,5 min,thrilling & terrifying.,2006,37.0297222,-76.3455556
1989,morgantown,wv,us,delta,900,15 min,I was working as a DJ at WCLG in Morgantown WV.  I am sorry I dont know the date and am sorry that I am now reporting a 9 year old sigh,1999,39.6294444,-79.9561111
1989,batesville,ar,us,disk,480,8 min,"It didn't seem harmful, it was like it was observing.",2001,35.7697222,-91.6408333
1989,bloomingdale,nj,us,disk,35,35 seconds,Tennis Ball size blue sphere objects.,2001,41.0019444,-74.3269444
1989,mint hill,nc,us,delta,180,2-3 minutes,Triangular UFO with 3 lights on each corner. No Sound. Low Flight Pattern.,2009,35.1794444,-80.6475
1989,glennallen,ak,us,other,3600,approx 1 hour,"10/15/89 Bright fast moving light over valley west of Glennallen, Alaska",2007,62.1091667,-145.5463889
1990,endwell,ny,us,other,1200,15-20 minutes,Triangle-shaped formation of 5-6 bright white circular objects that flew slowly from North to South with steady light and no noise,1999,42.1127778,-76.0213889
1990,north windham,me,us,fireball,420,5-7 min,"It was a firball that made a perpendicular manuver in North Windham, Maine in 10/90",2001,43.8341667,-70.4388889
1990,las vegas,nv,us,fireball,3600,1 hour.,strange lights north of Las Vegas,2003,36.175,-115.1363889
1990,prineville,or,us,fireball,6,about 4-6 seconds,Fast moving ball of light that can move at right angles.,2001,44.3,-120.8333333
1990,omaha,ne,us,cylinder,300,5 min,"Cigar shaped object flying level at about 750ft. Has fiery tail, triangular windows, fighter escort ...was called space junk by",2004,41.2586111,-95.9375
1990,auburn,wa,us,disk,5,5 sec,Bright green ball of light on highway 167,2005,47.3075,-122.2272222
1990,austin,tx,us,other,240,4 mins,UFO seen over Austin's  Robert Muller Airport,2003,30.2669444,-97.7427778
1991,snyder,tx,us,disk,300,5 minutes,Round disk with lights,2006,32.7177778,-100.9172222
1992,wilsonville,or,us,fireball,15,15 sec.,"Woman repts. seeing ""round, flashing lights"" moving S to N while in hospital.",1999,45.3,-122.7725
1992,gardnerville,nv,us,fireball,15,15 seconds,Observed object bluish/white in color streaking toward the surface of earth; then change directions instantly heading back into the s.,2004,38.9413889,-119.7486111
1992,lubbock,tx,us,cylinder,1800,20-30 minutes,The object was hidden in a cloud.,2004,33.5777778,-101.8547222
1992,cincinnati,oh,us,fireball,2,few seconds,Spectrum colored lights move across the sky and from them emerges a white light.,2011,39.1619444,-84.4569444
1993,butte,mt,us,disk,30,30 secs,"A hovering object in the vicinity of ""The Lady of the Mountains"".",2003,46.0038889,-112.5338889
1993,sulphur,la,us,disk,600,5 to 10 min.,Two large black objects fly over town ... 0nly 4 people observed them .....,2004,30.2363889,-93.3772222
1993,garden grove,ca,us,cylinder,900,15 minutes,A HUGE black retangular object. At least twice as big as a blimp even with it being about twice as high in the air. No lights. Seen jus,1998,33.7738889,-117.9405556
1993,portsmouth,nh,us,fireball,60,1 min,Strage lights over the river in NH,2004,43.0716667,-70.7630556
1993,owensboro,ky,us,disk,3600,1 hour or longer,It moved back and forth up and down covering more miles in a split sec than anything man-made i have ever seen.,2004,37.7741667,-87.1133333
1993,moss bluff,la,us,disk,120,2 min,F-16s chase Disc object over Calcasieu River between Lake Charles and Moss Bluff,2007,30.3025,-93.1905556
1994,stone ridge,ny,us,disk,30,30 seconds,Sitting on bench at UCCC. Looked up to the West and saw an oval UFO. Closed my eyes because my mind could not believe what it was witne,2005,41.8530556,-74.1394444
1994,circleville,oh,us,disk,60,30 seconds to one minute,"Silver disc saucer hovers above town, then disappears",2006,39.6005556,-82.9461111
1994,bellevue,wa,us,other,1500,25 min.,"Former mil. officer (ret.) w/ son & 4 others witnessed a very bright obj. in cloudless blue sky.  Alternated silver, black, then white.",1999,47.6105556,-122.1994444
1994,ithaca,ny,us,fireball,10800,3 hours,"A bright object was seen from a far distance. It gave off a bright white light, sometimes turning gold, the it would turn red and green",1998,42.4405556,-76.4969444
1994,neah bay,wa,us,disk,1800,30 minutes,Metallic sphere floats in the sky...,2011,48.3683333,-124.6236111
1994,oxley,ar,us,fireball,2,seconds,On the way to my grandfathers house myself and my father witnessed a red fireball hovering in the middle of the old gravel road we were,2014,35.8422222,-92.4569444
1994,milwaukee,wi,us,delta,0,,"A ufo with a large circular, white light ing the center with 3 smaller, red lights making a triange shape around the white light.",2003,43.0388889,-87.9063889
1994,angola,in,us,disk,180,2 to 3 minutes,"Designed like a spare tire, dark back lit port blueish, had been hiding in a forest .",2008,41.6347222,-84.9994444
1994,pittsburgh,pa,us,fireball,30,30 seconds,"It was a clear night in October, about 1994.  I saw a bright white ""star like"" thing in the sky. It was NOT moving. I was facing down t",2009,40.4405556,-79.9961111
1994,molalla,or,us,other,180,3 minutes,"black object in sky traveling above river, circle of light appearing to come from it lighting up river in just that area of light",2004,45.1475,-122.5758333
1994,marshall,tx,us,disk,5,5 seconds,Orange fiery disk flying at tree level,1999,32.5447222,-94.3672222
1995,santee,ca,us,fireball,8,08 seconds,A bright flourescent green light hovered between 2 houses then swiftly moved to left and then moved directly over us while we sat in ca,1999,32.8383333,-116.9730556
1995,fostoria,oh,us,delta,1200,20 min,it was amazing the way they stood perfectly still and took off .,2007,41.1569444,-83.4169444
1995,hawesville,ky,us,cylinder,120,several minutes,"Sightings of multiple craft disappearing and reappearing in sky, possible abduction.",2006,37.9,-86.755
1995,lawton,ok,us,disk,180,2-3 minutes,Silvery orb hiding behind  cloud!,2002,34.6086111,-98.39
1995,westminster,sc,us,other,180,3 minutes,The low-hanging cloud looked too dense,2005,34.6647222,-83.0966667
1995,godfrey,il,us,other,2400,40 min,"Man & 2 sons witness, pursue in car, strange obj. in rural area. Was size, approx. color of moon. Odd shape, haze. ""Winked out.""",1999,38.9555556,-90.1866667
1995,emporia,va,us,fireball,600,10 min,The light moved to me and then disapeared,2001,36.6858333,-77.5427778
1995,evansville,in,us,other,240,4 minutes,Bright Bold Primary Colored Lights in the Sky BUT no shape of a craft.,2000,37.9747222,-87.5558333
1995,woodstock,ct,us,other,5,5 seconds,"Young couple witness large glowing craft streak across the night sky, as if it were ""exiting"" the Earth. Craft was followed by a trail",2002,41.9483333,-71.9744444
1995,chatsworth,ca,us,fireball,5,5 sec,Moon size fireball flies over the San Fernando Valley Oct. 1995,2006,34.2572222,-118.6002778
1996,san mateo,ca,us,fireball,600,10 minutes,Silent  Close Range White Light seen on Highway 280 south of Highway 92. Witnessed by 3.,2003,37.5630556,-122.3244444
1996,austin,tx,us,delta,300,5 minutes,It was floating right above the tree tops over the houses about 75 feet from the tops os the houses.,2000,30.2669444,-97.7427778
1996,cazadero,ca,us,other,120,2 minutes,You won't believe what happened to ME!!!!,2002,38.5333333,-123.0841667
1996,milwaukee,wi,us,delta,0,boy scouts,A large triangular ship with a large white light in the center and 3 smaller red lights that made a triangle outside the white light.,2002,43.0388889,-87.9063889
1996,delano,tn,us,other,30,30 seconds,If you don't believe in ufo's you better keep your mind open and be prepared for the unexpected.,2006,35.265,-84.5533333
1996,blaine,or,us,disk,0,unknown,2adults - collaged MA degreed - viewed sphere silver/white 90% upper red/orange/blue 10% lower  approx. 3mi. away size:approx 400meters,1999,45.2775,-123.7033333
1996,roanoke,va,us,other,0,,Here's my case I rerported to Nuforc.org. It's horribly written so I'll rewrite it here to tell more of the details. It was not hunting,2008,37.2708333,-79.9416667
1996,roanoke,va,us,delta,3600,1 hour,I saw a triangular craft with only red light from front to back on it. Craft stopped over my back yard and shone light down.,2001,37.2708333,-79.9416667
1997,paris,tn,us,fireball,600,10 minutes,blue ball of light subdues me and my girlfriend.,2005,36.3019444,-88.3266667
1997,duncan,ok,us,other,315,0.21875,This is what I can remember about my abduction.,1999,34.5022222,-97.9575
1997,atlanta,ga,us,fireball,300,5 min,A  blue grayish kind of light.,1998,33.7488889,-84.3880556
1997,brigham city,ut,us,other,180,3 min,VERY LARGE GLOWING OBJECT HOVERED TO THE WEST OF THE SALT LAKE DISAPERING AFTER ABOUT 3 MIN,2002,41.5102778,-112.0147222
1997,pasadena,ca,us,disk,30,30 seconds,it was a plasma craft . It looked just like the pics taken in mex of a plasma craft.,2001,34.1477778,-118.1436111
1997,dallas,tx,us,fireball,300,5 minutes,"My friend and I were driving home from a date, I opened the sunroof to view the moon lite sky.  As I was starring at the stars  somethi",1998,32.7833333,-96.8
1997,new york city,ny,us,cylinder,120,2 minutes?,Metallic Cylinder Moving thru New York Harbor,2008,40.7141667,-74.0063889
1997,daggett,ca,us,cylinder,8,6-8 seconds.,"One very fast, very low flying rectangular object changes direction, stops, then seperates into three equally fast smaller objects.",2007,34.8633333,-116.8872222
1997,abingdon,va,us,fireball,600,~10 minutes,"Bristol Herald Courier run on Thursday (10-16-97) the following day ""Unusual lights in sky over Mountain Empire generate speculation"".",2001,36.7097222,-81.9775
1997,boulder,co,us,delta,300,5 min,Saw 3 lights moving slowly over the foothills,1999,40.015,-105.27
1997,shark river hills,nj,us,delta,300,5 minutes,"I was walking my dog on a dark, clear evening.  I sensed a weird feeling and looked up to the sky.  Above the tree tops, I couldn't mak",2007,40.1938889,-74.0491667
1997,bladen,ne,us,disk,120,2 minutes,ufos on the moon????,2001,40.3222222,-98.5944444
